industry_id,industry_name,job_id,company_name,title,skills,zip_code,state,lat,long
1,Defense and Space Manufacturing,3887723170,Boeing,Senior Systems Engineering Manager | SE,"['collaboration', 'leadership', 'testing']",63932.0,MO,36.6899,-90.2508
1,Defense and Space Manufacturing,3887948282,EVONA,"Mission Operations, Software Engineer",['c'],95050.0,CA,37.3492,-121.953
1,Defense and Space Manufacturing,3889415852,ClearanceJobs,Software Engineer Level 4 with Security Clearance,"['decisionmaking', 'hadoop']",20701.0,MD,39.1332,-76.7988
1,Defense and Space Manufacturing,3889414948,ClearanceJobs,"Software Engineer Stf / Embedded / C++ / Orlando, FL with Security Clearance","['algorithms', 'c', 'c', 'hardware', 'flexibility', 'resilience', 'innovation']",32801.0,FL,28.5399,-81.3727
1,Defense and Space Manufacturing,3889414992,ClearanceJobs,Lead Software Engineer with Security Clearance,"['agile', 'automation', 'automation', 'devops', 'innovation', 'creativity']",20170.0,VA,38.9839,-77.3675
1,Defense and Space Manufacturing,3889414979,ClearanceJobs,Software Engineer (ICAM) with Security Clearance,"['programming', 'java', 'scripting', 'programming', 'ruby', 'testing', 'presentation', 'testing']",80902.0,CO,38.7536,-104.8063
1,Defense and Space Manufacturing,3888481540,EVONA,Flight Software Engineer,"['hardware', 'c', 'hardware']",90802.0,CA,33.7706,-118.182
1,Defense and Space Manufacturing,3888483471,EVONA,Embedded Software Engineer,"['hardware', 'c', 'hardware']",90802.0,CA,33.7706,-118.182
1,Defense and Space Manufacturing,3888484347,EVONA,Software Engineer,"['hardware', 'c', 'hardware']",90802.0,CA,33.7706,-118.182
1,Defense and Space Manufacturing,3889493057,SAIC,Software Engineer,"['testing', 'agile', 'javascript', 'sql', 'problemsolving', 'communication']",38053.0,TN,35.3185,-89.9054
1,Defense and Space Manufacturing,3886897649,Insight Global,Software Engineer (Local to Michigan),[''],48088.0,MI,42.5164,-82.9832
1,Defense and Space Manufacturing,3894974960,John Galt Staffing,JavaFX Software Engineer,['java'],20109.0,VA,38.793,-77.5266
1,Defense and Space Manufacturing,3895257177,JAM Staffing,Embedded Software Engineer,"['agile', 'programming']",78701.0,TX,30.2713,-97.7426
1,Defense and Space Manufacturing,3895270862,Boeing,Modeling and Simulation Software Engineer (Associate or Experienced),"['agile', 'agile', 'agile', 'testing', 'agile', 'algorithms']",80902.0,CO,38.7536,-104.8063
1,Defense and Space Manufacturing,3895521599,Anduril Industries,Mission Software Engineer - Fury / CCA (Generalist),"['networking', 'debugging', 'programming', 'planning', 'testing', 'communication', 'planning', 'planning', 'planning', 'planning', 'initiative']",20001.0,DC,38.9122,-77.0177
1,Defense and Space Manufacturing,3900954968,Raytheon,Software Engineer (SecDevOps),"['devops', 'devops', 'programming', 'bash', 'collaboration', 'cybersecurity']",20164.0,VA,39.023,-77.3994
1,Defense and Space Manufacturing,3902756366,"Mission Technologies, a division of HII",Software Engineer (Engineer Software 4) - 18587,"['hardware', 'programming', 'organization']",92101.0,CA,32.7185,-117.1593
1,Defense and Space Manufacturing,3900956151,Brooksource,Senior Software Engineer,"['testing', 'cybersecurity', 'hardware', 'bash', 'networking', 'cybersecurity', 'leadership']",48310.0,MI,42.5648,-83.0701
1,Defense and Space Manufacturing,3904381838,Hadrian,Backend Software Engineer,[''],90001.0,CA,33.9731,-118.2479
1,Defense and Space Manufacturing,3902752908,"Mission Technologies, a division of HII","Software Engineer, Associate (Engineer Software 1) - 18662","['hardware', 'programming', 'networking', 'communication', 'planning', 'organization']",21076.0,MD,39.1551,-76.7215
1,Defense and Space Manufacturing,3904422176,Anduril Industries,Senior Mission Software Engineer - Fury / CCA (Generalist),"['networking', 'debugging', 'programming', 'planning', 'testing', 'communication', 'planning', 'planning', 'planning', 'planning', 'initiative']",92626.0,CA,33.6801,-117.9085
1,Defense and Space Manufacturing,3904393410,Ultra Electronics Group,Principal Software Engineer,['collaboration'],20151.0,VA,38.8867,-77.4457
1,Defense and Space Manufacturing,3904419511,Anduril Industries,Senior Mission Software Engineer - Fury / CCA (Generalist),"['networking', 'debugging', 'programming', 'planning', 'testing', 'communication', 'planning', 'planning', 'planning', 'planning', 'initiative']",20001.0,DC,38.9122,-77.0177
1,Defense and Space Manufacturing,3904420347,Anduril Industries,Mission Software Engineer - Fury / CCA (Generalist),"['networking', 'debugging', 'programming', 'planning', 'testing', 'communication', 'planning', 'planning', 'planning', 'planning', 'initiative']",20001.0,DC,38.9122,-77.0177
1,Defense and Space Manufacturing,3904415625,Anduril Industries,Mission Software Engineer - Fury / CCA (C++/Rust),"['networking', 'debugging', 'c', 'rust', 'planning', 'testing', 'communication', 'planning', 'planning', 'initiative']",92626.0,CA,33.6801,-117.9085
1,Defense and Space Manufacturing,3902757351,Scientific Research Corporation,Software Engineer,"['agile', 'multitasking', 'hardware', 'communication', 'express', 'writing', 'agile', 'communication', 'javascript', 'organization']",29401.0,SC,32.7795,-79.9371
1,Defense and Space Manufacturing,3901347912,Searchability®,Senior Software Engineer,"['python', 'c', 'express', 'python']",78701.0,TX,30.2713,-97.7426
1,Defense and Space Manufacturing,3904944471,ClearanceJobs,DevOps Software Engineer with Security Clearance,"['devops', 'debugging', 'python', 'python', 'python', 'javascript', 'python', 'python', 'javascript']",20701.0,MD,39.1332,-76.7988
1,Defense and Space Manufacturing,3905207302,Space Dynamics Laboratory,Cloud Software Engineer,"['virtualization', 'communication']",84321.0,UT,41.747,-111.8226
1,Defense and Space Manufacturing,3903476557,EVONA,Staff Software Engineer - Ground Software,"['testing', 'communication', 'writing', 'kubernetes']",90802.0,CA,33.7706,-118.182
1,Defense and Space Manufacturing,3803052628,Insight Global,Flight Software Engineer,"['c', 'c', 'programming', 'testing', 'hardware', 'hardware', 'hardware']",77598.0,TX,29.5564,-95.144
1,Defense and Space Manufacturing,3901936750,Entegee,Embedded Software Engineer,['flexibility'],32901.0,FL,28.0691,-80.62
1,Defense and Space Manufacturing,3905294793,Boeing,"Embedded Software Engineer (Associate, Experienced Or Lead)","['programming', 'hardware', 'hardware', 'agile', 'communication', 'testing']",87417.0,NM,36.741,-108.351
1,Defense and Space Manufacturing,3905312135,Northrop Grumman,Software Engineer / Principal Software Engineer,"['devops', 'leadership', 'testing', 'automation', 'interpersonal', 'python', 'scripting', 'testing', 'automation', 'scripting', 'automation', 'python', 'scripting', 'automation', 'automation', 'leadership', 'python', 'bash', 'agile', 'automation', 'testing', 'containerization', 'containerization']",32901.0,FL,28.0691,-80.62
1,Defense and Space Manufacturing,3905311147,Northrop Grumman,Software Engineer/Principal Software Engineer - Active DoD Secret Clearance Required,"['organization', 'agile', 'agile', 'communication', 'interpersonal', 'problemsolving', 'teamwork']",32901.0,FL,28.0691,-80.62
1,Defense and Space Manufacturing,3903838894,Viasat,Software Engineer Intern,"['automation', 'communication', 'java', 'c', 'testing', 'automation', 'java', 'algorithms', 'java']",92008.0,CA,33.1602,-117.325
1,Defense and Space Manufacturing,3903840737,Viasat,Senior Software Engineer,"['devops', 'programming', 'programming', 'scripting', 'programming', 'react']",92008.0,CA,33.1602,-117.325
1,Defense and Space Manufacturing,3905332019,General Dynamics Mission Systems,Cybersecurity Software Engineer,"['agile', 'c', 'cybersecurity', 'cybersecurity', 'python', 'docker', 'testing', 'java', 'containerization', 'cybersecurity', 'problemsolving', 'cybersecurity', 'networking', 'innovation']",20109.0,VA,38.793,-77.5266
1,Defense and Space Manufacturing,3905324992,General Dynamics Mission Systems,Cybersecurity Software Engineer,"['agile', 'c', 'cybersecurity', 'cybersecurity', 'python', 'docker', 'testing', 'java', 'containerization', 'cybersecurity', 'problemsolving', 'cybersecurity', 'networking', 'innovation']",20109.0,VA,38.793,-77.5266
1,Defense and Space Manufacturing,3905330288,General Dynamics Mission Systems,Software Engineer,"['agile', 'testing', 'testing', 'c', 'java', 'leadership', 'innovation']",22030.0,VA,38.8458,-77.3242
1,Defense and Space Manufacturing,3903893128,The Aerospace Corporation,Integrated Testing and Facilities (IT&F) EHP SE&I Engineer,"['innovation', 'testing', 'testing', 'testing', 'testing', 'testing', 'testing', 'testing', 'testing', 'leadership', 'react', 'testing', 'testing', 'presentation', 'initiative', 'testing', 'testing', 'leadership', 'leadership', 'innovation']",75935.0,TX,31.7865,-94.1869
1,Defense and Space Manufacturing,3902301629,Blue Origin,Senior Flight Software Engineer - Space Systems Development,"['leadership', 'leadership', 'testing', 'communication', 'agile']",98101.0,WA,47.6114,-122.3305
1,Defense and Space Manufacturing,3905660238,Sandia National Laboratories,R&D Computer Science Software Engineer/Satellite Remote Systems (Experienced) - Onsite,"['agile', 'collaboration', 'programming', 'c', 'docker', 'testing', 'hardware', 'hardware']",87101.0,NM,35.1996,-106.6448
1,Defense and Space Manufacturing,3902809815,Blue Origin,Principal Embedded Software Engineer,"['testing', 'leadership', 'communication', 'hardware']",98101.0,WA,47.6114,-122.3305
1,Defense and Space Manufacturing,3902804598,Blue Origin,"Sr. Flight Software Engineer, Autonomous & Intelligent System Management - Space Systems Development","['leadership', 'communication', 'planning', 'algorithms']",98101.0,WA,47.6114,-122.3305
1,Defense and Space Manufacturing,3902806485,Blue Origin,"Flight Software Engineer III, Displays & Control - Space Systems Development","['leadership', 'debugging']",32952.0,FL,28.2764,-80.6568
1,Defense and Space Manufacturing,3904722200,Viasat,Software Engineer Intern,"['debugging', 'networking', 'scripting', 'python', 'networking']",95101.0,CA,37.3894,-121.8868
4,Software Development,3884439345,OSI Engineering,"Software Engineer for global computer software company in Redmond, WA.","['automation', 'automation', 'automation', 'automation', 'automation', 'problemsolving', 'communication', 'containerization', 'docker', 'devops']",98052.0,WA,47.6718,-122.1232
4,Software Development,3884805078,Prestige Staffing,Senior Software Engineer,"['microservices', 'java', 'spring', 'microservices', 'spring', 'communication', 'java', 'spring']",10001.0,NY,40.7484,-73.9967
4,Software Development,3884996017,Amazon,"Software Engineer, Translation Services","['programming', 'programming']",15201.0,PA,40.4752,-79.9528
4,Software Development,3884838225,Cox Automotive Inc.,Software Engineer I,"['organization', 'agile', 'organization', 'ruby', 'typescript', 'ansible', 'agile', 'creativity', 'agile', 'flexibility', 'innovation', 'planning']",30303.0,GA,33.7525,-84.3888
4,Software Development,3884839409,Boomi,Senior Software Engineer,[''],19428.0,PA,40.0825,-75.3044
4,Software Development,3884825974,Microsoft,Principal Software Engineer,"['organization', 'testing', 'machinelearning']",98052.0,WA,47.6718,-122.1232
4,Software Development,3885847461,HIRECLOUT,Senior Back-end Software Engineer (Contract) (Hybrid) – 4314,"['agile', 'python', 'agile', 'sql', 'microservices', 'writing', 'testing', 'problemsolving', 'communication', 'planning', 'writing', 'interpersonal', 'docker', 'nosql']",92602.0,CA,33.7419,-117.7467
4,Software Development,3885844769,HIRECLOUT,Frontend Software Engineer (Contract) (Hybrid) – 4315,"['programming', 'nodejs', 'css', 'bootstrap', 'agile', 'sql', 'writing', 'testing', 'problemsolving', 'communication', 'interpersonal', 'react', 'machinelearning', 'nosql']",92602.0,CA,33.7419,-117.7467
4,Software Development,3888009695,Procore Technologies,"Software Engineer 1, Backend",['organization'],78701.0,TX,30.2713,-97.7426
4,Software Development,3888036174,Dice,Software Engineer,"['spring', 'programming', 'programming', 'sql', 'programming', 'sql', 'problemsolving', 'communication', 'interpersonal', 'innovation']",11732.0,NY,40.8472,-73.5349
4,Software Development,3887578123,Adobe,Senior Software Engineer,"['spark', 'leadership', 'problemsolving', 'programming', 'kafka', 'communication', 'spark', 'spark']",95101.0,CA,37.3894,-121.8868
4,Software Development,3888972238,Procore Technologies,"Staff Software Engineer, Backend (Software Delivery)","['collaboration', 'java']",78701.0,TX,30.2713,-97.7426
4,Software Development,3887907452,"Niantic, Inc.","Software Engineer, Machine Learning","['automation', 'planning', 'programming', 'devops', 'communication', 'collaboration']",94085.0,CA,37.3886,-122.0177
4,Software Development,3887578127,Adobe,"Senior Software Engineer, Applied AI/ML, Audio/Video",['programming'],10001.0,NY,40.7484,-73.9967
4,Software Development,3889289967,Edison Smart,Wireless Embedded Software Engineer,['networking'],92602.0,CA,33.7419,-117.7467
4,Software Development,3889287646,Harness,Staff Software Engineer - UI,"['innovation', 'testing', 'innovation', 'devops', 'html', 'css', 'html', 'devops', 'docker', 'leadership', 'debugging', 'nodejs', 'docker']",94040.0,CA,37.3855,-122.088
4,Software Development,3888404626,Jobot,Senior Software Engineer,"['go', 'go', 'go', 'go', 'kubernetes', 'spark', 'docker']",19102.0,PA,39.9489,-75.1661
4,Software Development,3889756859,NAVEX,Senior Staff Software Engineer,"['agile', 'c', 'sql', 'innovation', 'communication']",28202.0,NC,35.229,-80.8419
4,Software Development,3889760312,NAVEX,Senior Staff Software Engineer,"['agile', 'c', 'sql', 'innovation', 'communication']",97201.0,OR,45.5078,-122.6897
4,Software Development,3894871488,ZipRecruiter,"Senior Software Engineer, Machine Learning","['algorithms', 'testing', 'algorithms', 'algorithms', 'algorithms']",94301.0,CA,37.4443,-122.1497
4,Software Development,3894873232,ZipRecruiter,"Senior Software Engineer, Machine Learning","['algorithms', 'testing', 'algorithms', 'algorithms', 'algorithms']",90401.0,CA,34.0176,-118.4907
4,Software Development,3894859846,"Core Techs, Inc",Senior Software Engineer,"['react', 'react', 'react', 'writing', 'communication', 'react', 'programming', 'react', 'react', 'react', 'devops', 'sql', 'automation']",27101.0,NC,36.1024,-80.2228
4,Software Development,3894904703,BrickRed Systems,Software Engineer in Test,"['rust', 'automation', 'testing', 'automation', 'innovation', 'hardware', 'rust', 'automation', 'devops', 'testing', 'hardware', 'hardware', 'hardware', 'hardware', 'testing', 'writing', 'testing', 'programming', 'automation', 'innovation', 'innovation']",98052.0,WA,47.6718,-122.1232
4,Software Development,3894959926,Altera,Senior Software Engineer - Infrastructure,"['communication', 'leadership', 'agile']",94025.0,CA,37.4396,-122.1864
4,Software Development,3895257177,JAM Staffing,Embedded Software Engineer,"['agile', 'programming']",78701.0,TX,30.2713,-97.7426
4,Software Development,3895536895,Qumulo,"Software Engineer, Core Data Services","['testing', 'programming', 'java', 'communication', 'debugging']",98101.0,WA,47.6114,-122.3305
4,Software Development,3894577520,Jobot,Senior Software Engineer,"['agile', 'typescript', 'problemsolving', 'communication', 'agile']",75001.0,TX,32.96,-96.8385
4,Software Development,3894603792,"Niantic, Inc.",Software Engineer,"['javascript', 'typescript', 'collaboration']",94301.0,CA,37.4443,-122.1497
4,Software Development,3894584864,Cohesity,Senior Software Engineer,"['cybersecurity', 'agile', 'debugging', 'testing']",95101.0,CA,37.3894,-121.8868
4,Software Development,3891813307,ByteDance,Senior Backend Software Engineer - Global E-Commerce Supply Chain Billing & Settlement,"['creativity', 'creativity', 'programming', 'creativity']",95101.0,CA,37.3894,-121.8868
4,Software Development,3891809965,ByteDance,Senior Backend Software Engineer - Global E-Commerce Supply Chain Billing & Settlement,"['creativity', 'creativity', 'programming', 'creativity']",98004.0,WA,47.6155,-122.2072
4,Software Development,3898161254,"Yoh, A Day & Zimmermann Company",.NET Software Engineer in Test (SDET),"['c', 'automation', 'collaboration', 'testing', 'c', 'automation', 'testing', 'automation', 'automation', 'agile', 'communication', 'programming', 'c', 'automation', 'sql', 'testing']",75038.0,TX,32.8653,-96.9905
4,Software Development,3898162883,"Zillion Technologies, Inc.",Embedded Software Engineer,"['programming', 'networking', 'networking', 'collaboration', 'scripting', 'bash', 'automation', 'scripting', 'debugging']",19102.0,PA,39.9489,-75.1661
4,Software Development,3901676239,Docusign,Software Engineer,"['writing', 'c', 'testing', 'communication', 'programming', 'nosql']",98101.0,WA,47.6114,-122.3305
4,Software Development,3898171204,ServiceCore,Senior Software Engineer (React+Full Stack),"['react', 'agile', 'programming', 'react', 'react', 'aspnet', 'testing', 'docker', 'hardware']",80722.0,CO,40.5082,-103.2749
4,Software Development,3902921380,Docusign,Software Engineer,"['spark', 'testing', 'c', 'sql', 'nosql']",60601.0,IL,41.8858,-87.6181
4,Software Development,3902950765,SoftWriters,Software Engineer,"['agile', 'creativity', 'react', 'communication', 'organization']",15201.0,PA,40.4752,-79.9528
4,Software Development,3902950761,SoftWriters,Software Engineer - Senior,"['agile', 'collaboration', 'planning', 'algorithms', 'leadership', 'testing', 'creativity', 'sql', 'typescript', 'react', 'communication']",15201.0,PA,40.4752,-79.9528
4,Software Development,3904371120,hackajob,Software Engineer,"['communication', 'java', 'programming', 'sql', 'nosql', 'sql', 'c', 'programming', 'kafka']",22101.0,VA,38.9326,-77.1706
4,Software Development,3904366020,Salesforce,Senior/Lead/Principal Full-Stack Software Engineer - Backend,"['organization', 'testing', 'automation', 'automation', 'programming', 'programming', 'programming', 'testing', 'testing', 'interpersonal', 'agile', 'initiative']",94301.0,CA,37.4443,-122.1497
4,Software Development,3900956078,Roblox,Senior Performance Software Engineer - Avatar,"['c', 'writing', 'c', 'go']",94401.0,CA,37.5735,-122.3225
4,Software Development,3900964417,Walmart Global Tech,Distinguished Software Engineer,"['algorithms', 'algorithms', 'python', 'cybersecurity']",94085.0,CA,37.3886,-122.0177
4,Software Development,3904394223,OpenGov Inc.,Sr. Software Engineer,"['agile', 'leadership', 'microservices', 'collaboration', 'devops', 'automation', 'innovation', 'programming', 'agile', 'javascript', 'microservices', 'sql']",98101.0,WA,47.6114,-122.3305
4,Software Development,3904389721,Moveworks,"Sr. Software Engineer, Search Relevance","['organization', 'automation']",94040.0,CA,37.3855,-122.088
4,Software Development,3900965166,StubHub,Software Engineer II – Fulfillment,"['initiative', 'organization', 'innovation', 'initiative', 'creativity', 'innovation', 'programming', 'swift', 'flexibility']",10001.0,NY,40.7484,-73.9967
4,Software Development,3904389668,Aurora,Senior Staff Software Engineer - Autonomy Data: MP Data Engine,"['planning', 'planning', 'automation', 'c', 'automation']",94040.0,CA,37.3855,-122.088
4,Software Development,3904423372,ServiceNow,Senior Software Engineer - Observability,"['networking', 'go', 'scripting', 'ansible', 'virtualization', 'communication', 'flexibility']",95050.0,CA,37.3492,-121.953
4,Software Development,3904385782,"Softworld, a Kelly Company",Software Engineer II,"['agile', 'c', 'c', 'c', 'debugging']",21031.0,MD,39.4805,-76.6553
4,Software Development,3904390540,GRAIL,"Senior Software Engineer, Test #3748","['writing', 'testing', 'automation', 'writing', 'debugging', 'automation', 'python', 'testing', 'testing', 'testing', 'automation', 'agile', 'listening', 'communication']",94025.0,CA,37.4396,-122.1864
4,Software Development,3900967019,Walmart Global Tech,Principal Software Engineer,"['algorithms', 'algorithms', 'python', 'cybersecurity']",94085.0,CA,37.3886,-122.0177
4,Software Development,3904427817,Trimble Inc.,Software Engineer 2,"['collaboration', 'sql', 'java', 'javascript', 'programming', 'communication', 'sql', 'sql', 'java']",97201.0,OR,45.5078,-122.6897
4,Software Development,3904385624,Snap Inc.,"Software Engineer, Full Stack, 3+ Years of Experience","['express', 'javascript', 'javascript', 'programming', 'javascript', 'microservices', 'nosql']",90001.0,CA,33.9731,-118.2479
4,Software Development,3904418842,ServiceNow,Staff Software Engineer,"['automation', 'css', 'flexibility']",92101.0,CA,32.7185,-117.1593
4,Software Development,3904424391,Snorkel AI,Senior Software Engineer — Developer Experience,"['testing', 'teamwork', 'docker', 'containerization', 'scripting', 'communication', 'debugging']",94061.0,CA,37.4647,-122.2304
4,Software Development,3904421679,Docusign,"Software Engineer, CLM Platform","['c', 'agile', 'agile', 'agile', 'programming', 'c', 'html', 'problemsolving']",60601.0,IL,41.8858,-87.6181
4,Software Development,3900959938,Venmo,Senior Staff Software Engineer - Python,"['communication', 'organization', 'leadership', 'python', 'programming', 'nosql', 'terraform']",78701.0,TX,30.2713,-97.7426
4,Software Development,3901359087,DataAnnotation,Software Engineer,"['flexibility', 'programming', 'c', 'programming', 'c', 'writing']",94085.0,CA,37.3886,-122.0177
4,Software Development,3904941046,Selby Jennings,Multi-Strat Hedge Fund | Senior Software Engineer,"['python', 'programming']",10001.0,NY,40.7484,-73.9967
4,Software Development,3904937335,Selby Jennings,High Frequency Trading | Senior Software Engineer,"['programming', 'c', 'problemsolving']",78701.0,TX,30.2713,-97.7426
4,Software Development,3904949470,Dice,Northrop Grumman (DoD SkillBridge) - Cyber Software Engineer - Cincinnati OH,"['organization', 'networking', 'leadership', 'collaboration', 'communication', 'scripting', 'programming', 'programming', 'programming', 'debugging', 'networking', 'programming', 'programming', 'agile']",45202.0,OH,39.1072,-84.502
4,Software Development,3901360081,Mojang Studios,Senior Software Engineer on Minecraft,"['organization', 'c', 'c', 'collaboration']",98052.0,WA,47.6718,-122.1232
4,Software Development,3904962283,DataAnnotation,Software Engineer,"['flexibility', 'programming', 'c', 'programming', 'c', 'writing']",21201.0,MD,39.2946,-76.6252
4,Software Development,3904952207,Dice,Principal Software Engineer (Springboot / Fintech),"['java', 'spring', 'problemsolving', 'communication']",28104.0,NC,35.0604,-80.6958
4,Software Development,3904950528,Dice,Software Engineer .NET (Banking),"['c', 'c', 'devops', 'devops', 'sql', 'sql', 'sql', 'leadership', 'problemsolving', 'problemsolving', 'communication', 'communication', 'collaboration', 'creativity', 'python', 'r']",10001.0,NY,40.7484,-73.9967
4,Software Development,3901357142,Microsoft,Senior Software Engineer - Power Apps,"['organization', 'innovation', 'agile', 'javascript', 'typescript']",98052.0,WA,47.6718,-122.1232
4,Software Development,3901360076,Microsoft,Software Engineer II,"['organization', 'python', 'devops', 'agile']",98052.0,WA,47.6718,-122.1232
4,Software Development,3903462124,Cohesity,Senior Software Engineer,"['cybersecurity', 'agile', 'debugging', 'testing']",95101.0,CA,37.3894,-121.8868
4,Software Development,3904946809,Dice,Sr Principal Cyber Software Engineer (EC),"['algorithms', 'algorithms', 'hardware', 'agile']",20701.0,MD,39.1332,-76.7988
4,Software Development,3903472077,NICE,Senior Software Engineer,"['agile', 'agile', 'automation', 'problemsolving', 'communication', 'decisionmaking', 'agile', 'automation', 'innovation']",84070.0,UT,40.5794,-111.8816
4,Software Development,3901377502,Awardco,Senior Back-End Software Engineer (Machine Learning Emphasis),"['writing', 'programming']",84042.0,UT,40.3412,-111.7144
4,Software Development,3904952090,Dice,Senior Software Engineer,"['writing', 'programming', 'microservices', 'testing', 'testing', 'automation', 'testing', 'sql', 'communication', 'communication', 'spring', 'innovation', 'innovation']",78701.0,TX,30.2713,-97.7426
4,Software Development,3905210376,Cisco,Interactive NLP Software Engineer,"['networking', 'problemsolving', 'programming', 'javascript', 'programming']",27601.0,NC,35.7727,-78.6324
4,Software Development,3904942237,Tata Technologies,Senior Software Engineer,"['automation', 'programming', 'programming', 'sql', 'programming', 'communication', 'problemsolving']",48326.0,MI,42.6583,-83.2375
4,Software Development,3903479211,Heritage Grocers Group,Senior Software Engineer,"['testing', 'sql', 'agile', 'problemsolving']",91758.0,CA,34.0633,-117.6509
4,Software Development,3901388739,DataAnnotation,Software Engineer,"['flexibility', 'programming', 'c', 'programming', 'c', 'writing']",22030.0,VA,38.8458,-77.3242
4,Software Development,3903476557,EVONA,Staff Software Engineer - Ground Software,"['testing', 'communication', 'writing', 'kubernetes']",90802.0,CA,33.7706,-118.182
4,Software Development,3901389909,Origin AI,Embedded Software Engineer,"['problemsolving', 'communication', 'algorithms', 'networking', 'hardware', 'communication']",20850.0,MD,39.087,-77.168
4,Software Development,3901941195,DataAnnotation,Software Engineer,"['flexibility', 'programming', 'c', 'programming', 'c', 'writing']",23219.0,VA,37.5463,-77.4378
4,Software Development,3901937531,DataAnnotation,Software Engineer,"['flexibility', 'programming', 'c', 'programming', 'c', 'writing']",30004.0,GA,34.1124,-84.302
4,Software Development,3905247849,Magnit,Senior Software Engineer,"['agile', 'java', 'javascript']",95050.0,CA,37.3492,-121.953
4,Software Development,3901936688,DataAnnotation,Software Engineer,"['flexibility', 'programming', 'c', 'programming', 'c', 'writing']",94536.0,CA,37.5605,-121.9999
4,Software Development,3901942301,DataAnnotation,Software Engineer,"['flexibility', 'programming', 'c', 'programming', 'c', 'writing']",95101.0,CA,37.3894,-121.8868
4,Software Development,3901936710,Exarca Inc.,Storage Software Engineer with Infrastructure,"['java', 'java', 'scripting', 'python']",75201.0,TX,32.7904,-96.8044
4,Software Development,3901942368,DataAnnotation,Software Engineer,"['flexibility', 'programming', 'c', 'programming', 'c', 'writing']",22201.0,VA,38.8871,-77.0932
4,Software Development,3903814131,Fivetran,Senior Staff Software Engineer,"['sql', 'react', 'sql', 'kubernetes', 'sql', 'sql', 'debugging', 'sql', 'sql', 'leadership', 'programming', 'java', 'sql', 'sql']",94601.0,CA,37.7806,-122.2166
4,Software Development,3905285559,ZoomInfo,Principal Software Engineer - Provisioning & Authorization,"['java', 'nodejs', 'sql', 'microservices', 'interpersonal']",20814.0,MD,39.0003,-77.1022
4,Software Development,3901945616,Sony Interactive Entertainment,Staff Software Engineer,"['testing', 'programming', 'communication', 'communication']",94401.0,CA,37.5735,-122.3225
4,Software Development,3901951849,Tomahawk Robotics,Android Software Engineer,"['agile', 'c', 'kotlin', 'writing', 'debugging', 'agile', 'networking', 'initiative', 'interpersonal', 'communication', 'collaboration', 'innovation']",32901.0,FL,28.0691,-80.62
4,Software Development,3905304072,"AvidXchange, Inc.",Software Engineer I,"['agile', 'communication', 'automation', 'debugging', 'agile', 'sql', 'automation', 'flexibility']",28202.0,NC,35.229,-80.8419
4,Software Development,3901953547,Walmart Global Tech,Staff Software Engineer - Backend (Data & Classification),"['innovation', 'jenkins', 'programming', 'java', 'sql', 'testing', 'cybersecurity']",94085.0,CA,37.3886,-122.0177
4,Software Development,3901958479,WellSky,Sr. Software Engineer,"['testing', 'angular', 'agile', 'collaboration']",66204.0,KS,38.9928,-94.6771
4,Software Development,3905305866,ModMed,Senior Software Engineer - PHP,"['innovation', 'debugging', 'php', 'programming', 'agile', 'empathy', 'decisionmaking', 'initiative', 'laravel', 'sql', 'communication', 'collaboration', 'agile', 'collaboration']",33428.0,FL,26.3446,-80.2109
4,Software Development,3901961133,Diverse Lynx,Senior Java Software Engineer (10+ years) (Fulltime),"['java', 'spring', 'angular', 'agile', 'microservices', 'communication', 'writing', 'writing']",90230.0,CA,33.9949,-118.3991
4,Software Development,3901976725,Ziosk,Senior Software Engineer- Android Team Lead,"['react', 'java', 'react', 'kotlin', 'react']",75201.0,TX,32.7904,-96.8044
4,Software Development,3905350381,Table4,Software Engineer,['algorithms'],30303.0,GA,33.7525,-84.3888
4,Software Development,3901988499,Microsoft,Senior High Performance Computing (HPC) Software Engineer,"['hardware', 'hardware', 'organization', 'hardware', 'communication']",98052.0,WA,47.6718,-122.1232
4,Software Development,3905370583,Axon,"Senior Software Engineer, New Product Development (Remote)","['empathy', 'planning', 'sql', 'nosql', 'programming']",98101.0,WA,47.6114,-122.3305
4,Software Development,3901989453,Microsoft,Software Engineer I/II,"['agile', 'organization', 'debugging', 'c', 'problemsolving', 'debugging']",98052.0,WA,47.6718,-122.1232
4,Software Development,3901990442,Microsoft,Software Engineer,"['innovation', 'organization', 'communication', 'debugging', 'python', 'react', 'agile', 'agile', 'programming', 'problemsolving', 'communication']",28202.0,NC,35.229,-80.8419
4,Software Development,3905374692,MongoDB,"Senior Software Engineer, Payments","['innovation', 'testing', 'planning']",10001.0,NY,40.7484,-73.9967
4,Software Development,3903886475,Jobot,Software Engineer,"['c', 'testing', 'scripting', 'testing']",33548.0,FL,28.1385,-82.4821
4,Software Development,3903884648,Jobot,Unreal Engine Software Engineer,"['programming', 'hardware', 'testing', 'hardware', 'hardware', 'testing']",33548.0,FL,28.1385,-82.4821
4,Software Development,3902300071,Cadence Design Systems,Software Engineer II,[''],95101.0,CA,37.3894,-121.8868
4,Software Development,3905397635,Cisco,Software Engineer – UCS,"['debugging', 'automation', 'python', 'planning', 'automation', 'python', 'debugging', 'communication', 'programming']",95101.0,CA,37.3894,-121.8868
4,Software Development,3902308715,Eleos Labs,Software Engineer Intern,"['encryption', 'agile', 'planning', 'devops', 'sql', 'testing']",78701.0,TX,30.2713,-97.7426
4,Software Development,3904069240,Esri,Sr. C++ Software Engineer - Maps SDKs,"['c', 'c', 'c', 'c', 'algorithms', 'communication']",92373.0,CA,34.0397,-117.1804
4,Software Development,3905691604,Zynga,Senior Software Engineer (Server)- Poker,"['algorithms', 'communication', 'html']",78701.0,TX,30.2713,-97.7426
4,Software Development,3905822862,MacroHire,Back-End Software Engineer (Hybrid),"['encryption', 'programming']",33122.0,FL,25.8001,-80.281
4,Software Development,3904093317,maven,Python/C++ Software Engineer,"['programming', 'go']",10001.0,NY,40.7484,-73.9967
4,Software Development,3905828795,CNA Search,Software Engineer,"['c', 'aspnet', 'sql', 'communication']",28202.0,NC,35.229,-80.8419
4,Software Development,3904501087,Koddi,Junior Software Engineer - Cohort,"['leadership', 'organization', 'communication', 'interpersonal', 'problemsolving']",76102.0,TX,32.7589,-97.328
4,Software Development,3904500280,,Software Engineer,"['programming', 'programming', 'python', 'problemsolving', 'communication', 'teamwork', 'programming']",17013.0,PA,40.2417,-77.1983
4,Software Development,3902353556,TraXtion,Sr Product Software Engineer,"['programming', 'programming', 'agile', 'testing', 'programming', 'angular', 'sql', 'agile', 'testing', 'communication']",75038.0,TX,32.8653,-96.9905
4,Software Development,3904502437,Vantage Consulting,Software Engineer,"['agile', 'c', 'python']",75023.0,TX,33.055,-96.7365
4,Software Development,3905866779,NJF Global Holdings Ltd,C++ Software Engineer (Quant Trading),"['c', 'c']",60601.0,IL,41.8858,-87.6181
4,Software Development,3905883371,Selby Jennings,High Frequency Trading | Senior Software Engineer,"['programming', 'c', 'problemsolving']",78701.0,TX,30.2713,-97.7426
4,Software Development,3902363633,Microsoft,Software Engineer II – Azure Storage,"['organization', 'programming', 'algorithms', 'debugging']",98052.0,WA,47.6718,-122.1232
4,Software Development,3902362848,Microsoft,Software Engineer II,"['innovation', 'planning', 'microservices', 'planning', 'automation', 'planning', 'automation', 'automation', 'planning', 'organization', 'agile', 'agile']",30303.0,GA,33.7525,-84.3888
4,Software Development,3902364167,Microsoft,SAP Software Engineer II,"['innovation', 'planning', 'microservices', 'planning', 'automation', 'planning', 'organization', 'agile']",78201.0,TX,29.4711,-98.5356
4,Software Development,3902364170,Microsoft,Software Engineer II,"['hardware', 'organization', 'debugging', 'debugging', 'writing']",98052.0,WA,47.6718,-122.1232
4,Software Development,3902363611,Microsoft,Software Engineer II,"['organization', 'leadership', 'organization', 'agile']",98052.0,WA,47.6718,-122.1232
4,Software Development,3902364162,Microsoft,Software Engineer II,"['organization', 'algorithms', 'debugging']",98052.0,WA,47.6718,-122.1232
4,Software Development,3902368515,Acres,Frontend Software Engineer II,"['organization', 'javascript', 'agile', 'testing']",72701.0,AR,36.052,-94.1534
4,Software Development,3905873944,Dice,Senior Software Engineer,"['testing', 'rust', 'typescript', 'nodejs']",22041.0,VA,38.8502,-77.1448
4,Software Development,3905882090,Dice,IBM Tivoli Software Engineer,"['automation', 'automation', 'automation', 'automation', 'programming', 'automation', 'automation', 'automation', 'automation', 'programming', 'problemsolving', 'interpersonal', 'containerization', 'virtualization']",75080.0,TX,32.966,-96.7452
4,Software Development,3905885196,Dice,Software Engineer (Full Stack),"['java', 'spring', 'java', 'microservices', 'agile', 'spring', 'spring', 'problemsolving', 'java', 'spring', 'spring', 'nodejs', 'docker', 'kubernetes', 'containerization']",90401.0,CA,34.0176,-118.4907
4,Software Development,3902834191,PrismHR,Senior Software Engineer,"['react', 'kubernetes', 'testing', 'writing', 'ruby', 'angular', 'writing', 'docker', 'kubernetes', 'kafka']",30096.0,GA,33.9845,-84.1529
4,Software Development,3902835573,Walmart Global Tech,Software Engineer III R-1833898,"['swift', 'programming', 'innovation', 'swift', 'programming', 'problemsolving', 'communication', 'cybersecurity']",72712.0,AR,36.3577,-94.2224
4,Software Development,3902833740,Walmart Global Tech,Software Engineer III R-1849459,"['swift', 'programming', 'innovation', 'swift', 'programming', 'problemsolving', 'communication', 'cybersecurity']",94085.0,CA,37.3886,-122.0177
4,Software Development,3902839676,Microsoft,Software Engineer II,"['networking', 'networking', 'networking', 'networking', 'organization', 'automation', 'scripting', 'agile', 'communication']",98052.0,WA,47.6718,-122.1232
4,Software Development,3906226148,Box,"Staff Software Engineer, Database Infrastructure",['collaboration'],94061.0,CA,37.4647,-122.2304
4,Software Development,3904710140,SpotOn,Senior Software Engineer - SpotOn Payments (Go/React),"['react', 'go', 'react', 'javascript', 'agile', 'kotlin']",78701.0,TX,30.2713,-97.7426
4,Software Development,3902859966,"ALTA IT Services, LLC",Software Engineer,"['agile', 'agile', 'java', 'angular', 'communication', 'docker', 'spring']",20151.0,VA,38.8867,-77.4457
4,Software Development,3902860594,Okta,Software Engineer- Federal,"['automation', 'problemsolving', 'scripting', 'testing', 'leadership', 'organization', 'flexibility']",10001.0,NY,40.7484,-73.9967
4,Software Development,3902862505,Agilysys,Software Engineer (On-Site),"['agile', 'java', 'spring', 'agile', 'agile', 'communication', 'programming', 'scripting', 'docker', 'kubernetes', 'testing', 'nosql']",30004.0,GA,34.1124,-84.302
4,Software Development,3906236365,Procore Technologies,Staff Software Engineer,"['devops', 'leadership', 'devops', 'devops', 'devops', 'devops', 'agile']",78701.0,TX,30.2713,-97.7426
4,Software Development,3906237173,Procore Technologies,"Senior Software Engineer, Backend","['organization', 'flexibility', 'teamwork', 'react', 'testing']",78701.0,TX,30.2713,-97.7426
4,Software Development,3906231733,Procore Technologies,"Software Engineer II, Ruby","['kubernetes', 'java']",78701.0,TX,30.2713,-97.7426
4,Software Development,3906233612,Procore Technologies,"Staff Software Engineer, Backend (Ruby)","['kubernetes', 'java']",78701.0,TX,30.2713,-97.7426
4,Software Development,3906238048,Procore Technologies,"Staff Software Engineer, Backend (Software Delivery)","['collaboration', 'java']",78701.0,TX,30.2713,-97.7426
4,Software Development,3906238046,Procore Technologies,"Staff Software Engineer, Full-Stack (Ruby)","['typescript', 'react', 'ruby']",78701.0,TX,30.2713,-97.7426
4,Software Development,3906240774,Arcus,"Senior Software Engineer, Machine Learning","['algorithms', 'docker', 'initiative']",10001.0,NY,40.7484,-73.9967
4,Software Development,3902864550,Talener,Senior Software Engineer,"['python', 'python', 'python', 'microservices', 'problemsolving', 'sql']",10001.0,NY,40.7484,-73.9967
4,Software Development,3906248579,"Softworld, a Kelly Company",Principal Embedded Software Engineer,"['testing', 'testing', 'c']",93505.0,CA,35.1278,-117.9651
4,Software Development,3902869157,Venmo,Staff Software Engineer - Python,"['communication', 'organization', 'leadership', 'python', 'programming', 'nosql', 'terraform']",60601.0,IL,41.8858,-87.6181
6,"Technology, Information and Internet",3884818241,Ziff Davis Shopping,Senior Software Engineer,"['collaboration', 'planning', 'sql', 'java', 'docker', 'testing']",78701.0,TX,30.2713,-97.7426
6,"Technology, Information and Internet",3885859909,Google,"Senior Software Engineer, Project Starline","['programming', 'leadership', 'networking', 'leadership', 'hardware']",98101.0,WA,47.6114,-122.3305
6,"Technology, Information and Internet",3885847461,HIRECLOUT,Senior Back-end Software Engineer (Contract) (Hybrid) – 4314,"['agile', 'python', 'agile', 'sql', 'microservices', 'writing', 'testing', 'problemsolving', 'communication', 'planning', 'writing', 'interpersonal', 'docker', 'nosql']",92602.0,CA,33.7419,-117.7467
6,"Technology, Information and Internet",3885844769,HIRECLOUT,Frontend Software Engineer (Contract) (Hybrid) – 4315,"['programming', 'nodejs', 'css', 'bootstrap', 'agile', 'sql', 'writing', 'testing', 'problemsolving', 'communication', 'interpersonal', 'react', 'machinelearning', 'nosql']",92602.0,CA,33.7419,-117.7467
6,"Technology, Information and Internet",3885853938,Google,"Staff Software Engineer, Google Cloud Platforms","['leadership', 'organization', 'networking', 'leadership', 'leadership']",98033.0,WA,47.6786,-122.1894
6,"Technology, Information and Internet",3885855602,Google,"Staff Software Engineer, Infrastructure, Search","['hardware', 'leadership', 'organization', 'networking', 'leadership', 'leadership']",90001.0,CA,33.9731,-118.2479
6,"Technology, Information and Internet",3894849266,Alphatec Spine,"Software Engineer I, AIX","['c', 'testing', 'communication', 'programming', 'presentation', 'sql', 'devops', 'c', 'agile', 'scripting', 'java', 'communication']",92008.0,CA,33.1602,-117.325
6,"Technology, Information and Internet",3898160388,Tachyon Technologies,Oracle IT Programmer/Software Engineer III,['debugging'],77002.0,TX,29.7594,-95.3594
6,"Technology, Information and Internet",3898168138,Zelis,ASP.Net Software Engineer,"['aspnet', 'aspnet', 'sql', 'microservices', 'sql', 'algorithms', 'aspnet', 'sql', 'microservices', 'sql', 'algorithms']",33701.0,FL,27.7723,-82.6386
6,"Technology, Information and Internet",3901641562,eBay,"Software Engineer, Back End",[''],95101.0,CA,37.3894,-121.8868
6,"Technology, Information and Internet",3901641463,Red Ventures,Full Stack Software Engineer | Bankrate.com,"['programming', 'nodejs', 'javascript', 'svelte', 'sql', 'decisionmaking']",28202.0,NC,35.229,-80.8419
6,"Technology, Information and Internet",3863610227,Qentelli,Software Engineer in Test Automation,"['automation', 'c', 'sql', 'sql', 'sql', 'automation', 'jenkins', 'automation', 'automation', 'automation', 'programming', 'java', 'python', 'automation', 'automation', 'automation', 'problemsolving', 'automation', 'agile', 'communication', 'interpersonal', 'problemsolving']",75201.0,TX,32.7904,-96.8044
6,"Technology, Information and Internet",175485704,GOYT,Software Engineer,"['php', 'php', 'decisionmaking', 'php', 'programming', 'communication', 'collaboration', 'php', 'innovation']",80202.0,CO,39.7491,-104.9946
6,"Technology, Information and Internet",3900940733,DAT Freight & Analytics,Staff Software Engineer,"['innovation', 'microservices', 'kafka', 'sql', 'nosql', 'leadership', 'communication', 'javascript', 'docker', 'kafka', 'react', 'angular']",80202.0,CO,39.7491,-104.9946
6,"Technology, Information and Internet",3904366020,Salesforce,Senior/Lead/Principal Full-Stack Software Engineer - Backend,"['organization', 'testing', 'automation', 'automation', 'programming', 'programming', 'programming', 'testing', 'testing', 'interpersonal', 'agile', 'initiative']",94301.0,CA,37.4443,-122.1497
6,"Technology, Information and Internet",3900959842,LinkedIn,Senior Software Engineer - Applications,"['python', 'programming', 'collaboration']",94085.0,CA,37.3886,-122.0177
6,"Technology, Information and Internet",3904387379,Cash App,"Principal Software Engineer, Cash Commerce","['collaboration', 'initiative', 'initiative', 'collaboration', 'communication', 'blockchain', 'go']",98101.0,WA,47.6114,-122.3305
6,"Technology, Information and Internet",3902752765,Google,"Staff Software Engineer, Borglet","['hardware', 'networking', 'networking', 'leadership', 'organization', 'planning']",94085.0,CA,37.3886,-122.0177
6,"Technology, Information and Internet",3904397839,Comcast,"Software Engineer(Python, Apache Spark) Software Dev & Engineering","['organization', 'python', 'spark', 'java', 'programming']",19102.0,PA,39.9489,-75.1661
6,"Technology, Information and Internet",3902751770,Google,"Staff Software Engineer, Pixel GPU System Software","['leadership', 'organization', 'networking', 'leadership', 'hardware', 'leadership', 'leadership']",94040.0,CA,37.3855,-122.088
6,"Technology, Information and Internet",3902756202,Google,"Software Engineer III, Hardware/Software Co-Design","['hardware', 'python', 'programming', 'networking', 'leadership', 'hardware', 'networking']",27701.0,NC,35.9967,-78.8966
6,"Technology, Information and Internet",3904385472,Cash App,"Principal Software Engineer, Cash Commerce","['collaboration', 'initiative', 'initiative', 'collaboration', 'communication', 'blockchain', 'go']",10001.0,NY,40.7484,-73.9967
6,"Technology, Information and Internet",3900960798,LinkedIn,Senior Software Engineer - Applications,"['python', 'programming', 'collaboration']",94085.0,CA,37.3886,-122.0177
6,"Technology, Information and Internet",3900959938,Venmo,Senior Staff Software Engineer - Python,"['communication', 'organization', 'leadership', 'python', 'programming', 'nosql', 'terraform']",78701.0,TX,30.2713,-97.7426
6,"Technology, Information and Internet",3901353652,Pro17Analytics,Senior Software Engineer - Oracle PL/SQL,"['writing', 'agile', 'programming', 'testing', 'java', 'agile', 'agile']",27701.0,NC,35.9967,-78.8966
6,"Technology, Information and Internet",3901390081,LinkedIn,Senior Software Engineer - Applications,"['python', 'programming', 'collaboration']",94085.0,CA,37.3886,-122.0177
6,"Technology, Information and Internet",3903469622,Google,"Senior Staff Software Engineer, Google Cloud, Looker","['java', 'leadership', 'organization', 'sql', 'leadership', 'networking', 'leadership', 'leadership']",98033.0,WA,47.6786,-122.1894
6,"Technology, Information and Internet",3901393102,myGwork - LGBTQ+ Business Community,Software Engineer II- Cloud,"['agile', 'programming', 'decisionmaking', 'programming', 'spring']",75023.0,TX,33.055,-96.7365
6,"Technology, Information and Internet",3901388373,myGwork - LGBTQ+ Business Community,UI/React - Software Engineer III,"['agile', 'algorithms', 'java', 'python', 'javascript', 'react', 'programming', 'agile', 'react', 'javascript', 'automation', 'agile', 'agile', 'communication', 'testing']",43085.0,OH,40.0999,-83.0157
6,"Technology, Information and Internet",3901388505,myGwork - LGBTQ+ Business Community,Software Engineer III,"['agile', 'algorithms', 'programming', 'java', 'microservices', 'spring', 'spring', 'spring', 'spring', 'spring', 'testing']",94301.0,CA,37.4443,-122.1497
6,"Technology, Information and Internet",3905259183,Red Ventures,2024 Launch Program: Junior Software Engineer Intern,"['leadership', 'spring', 'interpersonal', 'communication', 'decisionmaking']",29707.0,SC,34.9773,-80.8584
6,"Technology, Information and Internet",3905262066,eBay,Software Engineer,"['java', 'algorithms', 'agile', 'communication']",95101.0,CA,37.3894,-121.8868
6,"Technology, Information and Internet",3905284102,Fetch,iOS Software Engineer,"['planning', 'swift', 'testing', 'hardware']",35203.0,AL,33.521,-86.8066
6,"Technology, Information and Internet",3901951007,LinkedIn,"Staff Software Engineer, ML Foundations SRE ","['go', 'innovation', 'programming', 'rust', 'communication']",94040.0,CA,37.3855,-122.088
6,"Technology, Information and Internet",3905331072,Cash App,"Senior Software Engineer, Cash Commerce","['collaboration', 'initiative', 'initiative', 'problemsolving', 'communication', 'blockchain', 'go']",98101.0,WA,47.6114,-122.3305
6,"Technology, Information and Internet",3905327596,Cash App,"Senior Software Engineer, Cash Commerce","['collaboration', 'initiative', 'initiative', 'problemsolving', 'communication', 'blockchain', 'go']",10001.0,NY,40.7484,-73.9967
6,"Technology, Information and Internet",3905335745,The Trade Desk,"Senior Software Engineer, Forecasting","['collaboration', 'communication', 'pytorch', 'leadership', 'initiative']",95101.0,CA,37.3894,-121.8868
6,"Technology, Information and Internet",3905392378,Meta,Software Engineer - Calibration Team,"['c', 'debugging', 'python', 'pytorch', 'c']",15201.0,PA,40.4752,-79.9528
6,"Technology, Information and Internet",3901998973,myGwork - LGBTQ+ Business Community,Senior Lead Software Engineer - Mainframe,"['agile', 'agile', 'problemsolving', 'java', 'sql']",33602.0,FL,27.9614,-82.4597
6,"Technology, Information and Internet",3904069240,Esri,Sr. C++ Software Engineer - Maps SDKs,"['c', 'c', 'c', 'c', 'algorithms', 'communication']",92373.0,CA,34.0397,-117.1804
6,"Technology, Information and Internet",3905693735,The Trade Desk,Senior Software Engineer,"['sql', 'agile', 'planning']",92602.0,CA,33.7419,-117.7467
6,"Technology, Information and Internet",3904093317,maven,Python/C++ Software Engineer,"['programming', 'go']",10001.0,NY,40.7484,-73.9967
6,"Technology, Information and Internet",3906226148,Box,"Staff Software Engineer, Database Infrastructure",['collaboration'],94061.0,CA,37.4647,-122.2304
6,"Technology, Information and Internet",3906227274,BetterHelp,Full Stack Software Engineer,"['go', 'php', 'bootstrap', 'react', 'php', 'php', 'sql', 'css', 'javascript', 'bootstrap', 'agile', 'teamwork', 'sql', 'hardware']",94040.0,CA,37.3855,-122.088
6,"Technology, Information and Internet",3902864226,Rocket Travel by Agoda,Software Engineer - Backend,"['kotlin', 'testing', 'empathy', 'kotlin', 'agile', 'programming', 'collaboration', 'organization']",60601.0,IL,41.8858,-87.6181
6,"Technology, Information and Internet",3904710813,ByteDance,"Full Stack Software Engineer Intern, Developer Infrastructure- Offcycle","['creativity', 'creativity', 'sql', 'nosql', 'testing', 'javascript', 'django', 'writing', 'creativity', 'problemsolving', 'creativity']",95101.0,CA,37.3894,-121.8868
6,"Technology, Information and Internet",3902869157,Venmo,Staff Software Engineer - Python,"['communication', 'organization', 'leadership', 'python', 'programming', 'nosql', 'terraform']",60601.0,IL,41.8858,-87.6181
6,"Technology, Information and Internet",3904721815,Google,"Senior Software Engineer, Google Ads","['programming', 'leadership', 'networking', 'leadership']",10001.0,NY,40.7484,-73.9967
6,"Technology, Information and Internet",3904719876,Google,"Senior Software Engineer, Embedded Systems/Firmware, Pixel","['programming', 'leadership', 'networking', 'leadership', 'hardware']",94040.0,CA,37.3855,-122.088
6,"Technology, Information and Internet",3904720957,Google,"Software Engineer III, Infrastructure, Google Cloud Platforms","['programming', 'algorithms', 'hardware', 'networking', 'leadership']",98101.0,WA,47.6114,-122.3305
6,"Technology, Information and Internet",3904720899,Google,"Senior Software Engineer, Infrastructure, Google Cloud Data Management","['programming', 'hardware', 'leadership', 'networking', 'leadership']",98033.0,WA,47.6786,-122.1894
6,"Technology, Information and Internet",3904724182,Google,"Senior Staff Software Engineer, Workload Identity Management","['leadership', 'organization', 'networking', 'leadership', 'organization', 'leadership']",94085.0,CA,37.3886,-122.0177
6,"Technology, Information and Internet",3904718994,Google,"Software Engineer III, Platforms Infrastructure Engineering","['programming', 'algorithms', 'networking', 'leadership']",94085.0,CA,37.3886,-122.0177
6,"Technology, Information and Internet",3902868766,myGwork - LGBTQ+ Business Community,Software Engineer II- Cloud Infrastructure,"['agile', 'programming', 'decisionmaking', 'spring', 'kubernetes', 'automation', 'python']",75023.0,TX,33.055,-96.7365
27,Retail,3894551665,Costco Wholesale,Software Engineer - Booking - Costco Travel,"['java', 'planning', 'testing', 'automation', 'testing', 'automation', 'react', 'sql', 'communication', 'communication', 'problemsolving', 'java', 'sql', 'javascript', 'sql']",98101.0,WA,47.6114,-122.3305
27,Retail,3895559165,"Lowe's Companies, Inc.",Senior Software Engineer,"['testing', 'testing', 'kubernetes', 'kafka', 'automation', 'automation', 'spring', 'spring', 'microservices', 'java', 'docker', 'scripting', 'automation']",28202.0,NC,35.229,-80.8419
27,Retail,3895556590,"Lowe's Companies, Inc.",Senior Software Engineer,"['react', 'programming', 'testing', 'testing', 'java', 'javascript', 'css', 'javascript', 'testing', 'writing']",28202.0,NC,35.229,-80.8419
27,Retail,3895555948,"Lowe's Companies, Inc.",Software Engineer,"['programming', 'testing', 'testing', 'react']",28202.0,NC,35.229,-80.8419
27,Retail,3895560109,"Lowe's Companies, Inc.",Software Engineer,"['programming', 'testing', 'testing']",28202.0,NC,35.229,-80.8419
27,Retail,3901674453,Spreetail,Software Engineer II,"['automation', 'testing', 'programming', 'flexibility']",68502.0,NE,40.7893,-96.6938
27,Retail,3899523985,Solomon Page, Sr. Software Engineer,"['sql', 'testing', 'agile', 'programming', 'communication']",32801.0,FL,28.5399,-81.3727
27,Retail,3904377786,Walmart,"(USA) Senior, Software Engineer","['organization', 'automation', 'programming', 'python', 'microservices', 'containerization', 'docker', 'cybersecurity']",72712.0,AR,36.3577,-94.2224
27,Retail,3904371196,CarMax,Senior Software Engineer,"['innovation', 'agile', 'teamwork', 'communication', 'sql', 'nosql', 'agile', 'devops', 'html', 'css', 'innovation']",23219.0,VA,37.5463,-77.4378
27,Retail,3904364208,Chewy,Software Engineer III,"['leadership', 'testing', 'planning', 'communication', 'collaboration', 'programming', 'testing']",98004.0,WA,47.6155,-122.2072
27,Retail,3901378387,Ace Hardware Corporation,Mobile Software Engineer Manager (Hybrid),"['swift', 'java', 'communication', 'collaboration', 'sql', 'organization', 'hardware', 'hardware', 'hardware']",60523.0,IL,41.8371,-87.9638
27,Retail,3905214836,Motion Recruitment,Qlik Sense Software Engineer,"['sql', 'sql', 'communication', 'flexibility', 'automation', 'writing', 'sql', 'sql', 'communication']",94566.0,CA,37.6658,-121.8755
27,Retail,3901950002,Harvey Nash,Software Engineer,"['programming', 'programming', 'encryption', 'communication', 'programming']",98052.0,WA,47.6718,-122.1232
27,Retail,3901949157,Walmart Global Tech,Principal Software Engineer,"['organization', 'problemsolving', 'nosql', 'python', 'communication', 'collaboration', 'cybersecurity']",98004.0,WA,47.6155,-122.2072
27,Retail,3901950257,Walmart Global Tech,Staff Software Engineer,"['organization', 'python', 'testing', 'cybersecurity']",98004.0,WA,47.6155,-122.2072
27,Retail,3905305701,"Lowe's Companies, Inc.",Software Engineer,"['programming', 'testing', 'testing']",28202.0,NC,35.229,-80.8419
27,Retail,3905310131,"Lowe's Companies, Inc.",Software Engineer,"['programming', 'testing', 'testing', 'javascript', 'javascript']",28202.0,NC,35.229,-80.8419
27,Retail,3905311015,"Lowe's Companies, Inc.",Software Engineer,"['programming', 'testing', 'testing', 'java', 'spring', 'testing', 'agile', 'agile', 'jenkins', 'angular', 'spring']",28202.0,NC,35.229,-80.8419
27,Retail,3905310158,"Lowe's Companies, Inc.",Senior Software Engineer,"['testing', 'testing', 'spring', 'nosql', 'testing']",28202.0,NC,35.229,-80.8419
27,Retail,3905312012,"Lowe's Companies, Inc.",Senior Software Engineer,"['testing', 'testing', 'angular', 'javascript', 'typescript', 'react', 'containerization', 'docker']",28202.0,NC,35.229,-80.8419
27,Retail,3905325344,Walmart,"Principal, Software Engineer","['devops', 'devops', 'problemsolving', 'initiative', 'cybersecurity', 'networking']",94085.0,CA,37.3886,-122.0177
27,Retail,3905333943,H-E-B,Sr Software Engineer - Salesforce and React,"['communication', 'leadership', 'leadership', 'java', 'agile']",78701.0,TX,30.2713,-97.7426
27,Retail,3905878911,Rose International,Software Engineer,"['spring', 'automation', 'testing', 'testing', 'testing', 'automation', 'java', 'automation', 'testing', 'automation', 'automation', 'testing', 'innovation']",78701.0,TX,30.2713,-97.7426
27,Retail,3906235527,CarMax,Senior Software Engineer,"['innovation', 'devops', 'teamwork', 'communication', 'programming', 'c', 'scripting', 'agile', 'devops', 'sql', 'nosql', 'java', 'sql', 'nosql', 'innovation']",23219.0,VA,37.5463,-77.4378
27,Retail,3906234542,CarMax,Senior Software Engineer,"['innovation', 'innovation', 'agile', 'teamwork', 'communication', 'programming', 'agile', 'devops', 'communication', 'organization', 'innovation']",75023.0,TX,33.055,-96.7365
41,Banking,3884919744,Western Union,Senior Software Engineer - Angular,"['agile', 'programming', 'communication', 'testing', 'testing', 'problemsolving', 'organization', 'react', 'nosql', 'agile']",80202.0,CO,39.7491,-104.9946
41,Banking,3884444422,Dexian,Sr. Software Engineer/API Developer,"['agile', 'testing', 'agile', 'agile', 'agile']",28202.0,NC,35.229,-80.8419
41,Banking,3884925055,Western Union,Senior Software Engineer - Wordpress,"['agile', 'programming', 'communication', 'testing', 'testing', 'problemsolving', 'organization', 'react', 'nosql', 'agile']",80202.0,CO,39.7491,-104.9946
41,Banking,3889769846,Goldman Sachs,Software Engineer,[''],75201.0,TX,32.7904,-96.8044
41,Banking,3895562219,U.S. Bank,Senior Software Engineer,"['flexibility', 'agile', 'devops', 'writing', 'collaboration', 'agile', 'devops', 'problemsolving']",55071.0,MN,44.8344,-92.9873
41,Banking,3904362395,Wells Fargo,.NET Senior Software Engineer - Credit Card Operations,"['agile', 'sql', 'agile', 'java', 'angular']",28202.0,NC,35.229,-80.8419
41,Banking,3904361475,Wells Fargo,Lead Software Engineer,"['c', 'python', 'java', 'agile']",28202.0,NC,35.229,-80.8419
41,Banking,3902756825,Citi,Digital Software Engineer Senior Analyst,"['agile', 'writing', 'microservices', 'spring', 'presentation', 'writing', 'testing']",75038.0,TX,32.8653,-96.9905
41,Banking,3904363387,Wells Fargo,.NET Senior Software Engineer - Credit Card Operations,"['agile', 'sql', 'agile', 'java', 'angular']",50265.0,IA,41.5805,-93.7447
41,Banking,3904367010,Wells Fargo,Senior Software Engineer (Ref #001135),"['automation', 'automation', 'devops', 'spring']",28202.0,NC,35.229,-80.8419
41,Banking,3904361478,Wells Fargo,Lead Software Engineer,"['c', 'python', 'java', 'agile']",75038.0,TX,32.8653,-96.9905
41,Banking,3901357055,Oloop Technology Solutions,Senior Java Software Engineer,"['microservices', 'automation']",15201.0,PA,40.4752,-79.9528
41,Banking,3904992811,M&T Bank,Software Engineer - ServiceNow,"['leadership', 'organization', 'hardware', 'problemsolving', 'communication']",14201.0,NY,42.8967,-78.8846
41,Banking,3905301624,Wells Fargo,Lead Specialty Software Engineer,"['terraform', 'interpersonal', 'communication']",10001.0,NY,40.7484,-73.9967
41,Banking,3905302538,Wells Fargo,Lead Automation Software Engineer,"['innovation', 'automation', 'scripting', 'automation', 'scripting', 'java', 'devops']",76691.0,TX,31.7754,-97.1258
41,Banking,3905300940,Wells Fargo,Lead Software Engineer (001651),"['testing', 'docker']",28202.0,NC,35.229,-80.8419
41,Banking,3905300938,Wells Fargo,Lead Software Engineer,"['kubernetes', 'kubernetes', 'automation']",75038.0,TX,32.8653,-96.9905
41,Banking,3905306186,Wells Fargo,Lead Automation Software Engineer,"['innovation', 'automation', 'scripting', 'automation', 'scripting', 'java', 'devops']",28202.0,NC,35.229,-80.8419
41,Banking,3905370998,Wells Fargo,Lead Software Engineer - Java / Microservices / Cloud,"['java', 'interpersonal', 'communication', 'spring', 'spring', 'microservices', 'agile', 'javascript', 'angular', 'containerization', 'kubernetes']",50265.0,IA,41.5805,-93.7447
41,Banking,3905372691,Wells Fargo,Lead Software Engineer - Java / Microservices / Cloud,"['java', 'interpersonal', 'communication', 'spring', 'spring', 'microservices', 'agile', 'javascript', 'angular', 'containerization', 'kubernetes']",85224.0,AZ,33.3301,-111.8632
41,Banking,3905375260,Wells Fargo,Senior Software Engineer (Ref #001260),"['agile', 'c', 'java', 'agile']",28202.0,NC,35.229,-80.8419
41,Banking,3906224794,Wells Fargo,Senior Software Engineer (#001483),"['testing', 'programming']",85224.0,AZ,33.3301,-111.8632
41,Banking,3906228424,Wells Fargo,Credit Bureau Management Technology Lead Software Engineer,"['organization', 'encryption', 'kafka', 'java', 'sql']",50265.0,IA,41.5805,-93.7447
41,Banking,3906224790,Wells Fargo,Credit Bureau Management Technology Lead Software Engineer,"['organization', 'encryption', 'kafka', 'java', 'sql']",28202.0,NC,35.229,-80.8419
41,Banking,3906236020,UBS,"Software Engineer - DevOps, Global Banking","['devops', 'interpersonal', 'communication', 'agile']",10001.0,NY,40.7484,-73.9967
41,Banking,3904722620,MUFG,Software Engineer Lead,"['python', 'python', 'agile', 'python', 'programming', 'communication', 'python', 'python', 'agile']",33602.0,FL,27.9614,-82.4597
43,Financial Services,3884919744,Western Union,Senior Software Engineer - Angular,"['agile', 'programming', 'communication', 'testing', 'testing', 'problemsolving', 'organization', 'react', 'nosql', 'agile']",80202.0,CO,39.7491,-104.9946
43,Financial Services,3884925055,Western Union,Senior Software Engineer - Wordpress,"['agile', 'programming', 'communication', 'testing', 'testing', 'problemsolving', 'organization', 'react', 'nosql', 'agile']",80202.0,CO,39.7491,-104.9946
43,Financial Services,3884805078,Prestige Staffing,Senior Software Engineer,"['microservices', 'java', 'spring', 'microservices', 'spring', 'communication', 'java', 'spring']",10001.0,NY,40.7484,-73.9967
43,Financial Services,3885806697,Capital One,"Senior Lead Software Engineer, Full Stack","['programming', 'nosql', 'docker', 'go', 'agile']",22101.0,VA,38.9326,-77.1706
43,Financial Services,3885807498,Capital One,"Senior Software Engineer, Back End (GoLang)","['kafka', 'agile', 'programming', 'nosql', 'docker', 'nodejs', 'agile']",60601.0,IL,41.8858,-87.6181
43,Financial Services,3885805688,Capital One,"Lead Software Engineer, Full Stack","['programming', 'nosql', 'docker', 'go', 'agile']",22101.0,VA,38.9326,-77.1706
43,Financial Services,3885807502,Capital One,"Lead Software Engineer, Full Stack","['programming', 'nosql', 'docker', 'go', 'agile']",23219.0,VA,37.5463,-77.4378
43,Financial Services,3885808496,Capital One,"Lead Software Engineer, Back End","['programming', 'nosql', 'docker', 'nodejs', 'agile']",23219.0,VA,37.5463,-77.4378
43,Financial Services,3885809468,Capital One,"Senior Lead Software Engineer, Full Stack (Remote -Eligible)","['leadership', 'programming', 'nosql', 'docker', 'sql', 'python', 'agile', 'communication']",22101.0,VA,38.9326,-77.1706
43,Financial Services,3885807496,Capital One,"Senior Lead Software Engineer, Full Stack (Remote -Eligible)","['leadership', 'programming', 'nosql', 'docker', 'sql', 'python', 'agile', 'communication']",23219.0,VA,37.5463,-77.4378
43,Financial Services,3887704948,Kapitus,Tech Lead\/Software Engineer III - Job ID: 552,"['testing', 'agile', 'microservices', 'python', 'nosql', 'agile', 'agile', 'communication', 'interpersonal', 'problemsolving', 'motivation']",10001.0,NY,40.7484,-73.9967
43,Financial Services,3885806686,Capital One,"Senior Lead Software Engineer, Full Stack","['programming', 'nosql', 'docker', 'go', 'agile']",23219.0,VA,37.5463,-77.4378
43,Financial Services,3885807503,Capital One,"Lead Software Engineer, Back End","['programming', 'nosql', 'docker', 'nodejs', 'agile']",22101.0,VA,38.9326,-77.1706
43,Financial Services,3885810351,Capital One,Senior Software Engineer,"['agile', 'programming', 'kafka', 'docker', 'agile']",10001.0,NY,40.7484,-73.9967
43,Financial Services,3885811233,Capital One,"Lead Software Engineer, Backend (Java, Go)","['programming', 'nosql', 'docker', 'nodejs', 'agile']",23219.0,VA,37.5463,-77.4378
43,Financial Services,3885810360,Capital One,"Senior Software Engineer Back End (Java, Python, Spring Boot, AWS)","['spring', 'agile', 'programming', 'nosql', 'docker', 'nodejs', 'agile']",23219.0,VA,37.5463,-77.4378
43,Financial Services,3885804881,Capital One,"Senior Lead Software Engineer, Full Stack (Remote -Eligible)","['leadership', 'programming', 'nosql', 'docker', 'sql', 'python', 'agile', 'communication']",60601.0,IL,41.8858,-87.6181
43,Financial Services,3885805695,Capital One,"Senior Lead Software Engineer, Full Stack (Remote -Eligible)","['leadership', 'programming', 'nosql', 'docker', 'sql', 'python', 'agile', 'communication']",10001.0,NY,40.7484,-73.9967
43,Financial Services,3885805678,Capital One,"Senior Software Engineer Back End (Java, Python, Spring Boot, AWS)","['spring', 'agile', 'programming', 'nosql', 'docker', 'nodejs', 'agile']",10001.0,NY,40.7484,-73.9967
43,Financial Services,3885806695,Capital One,"Software Engineer, Full Stack","['agile', 'programming', 'nosql', 'docker', 'go', 'agile']",22101.0,VA,38.9326,-77.1706
43,Financial Services,3885805691,Capital One,"Senior Lead Software Engineer, Full Stack (Remote -Eligible)","['leadership', 'programming', 'nosql', 'docker', 'sql', 'python', 'agile', 'communication']",75023.0,TX,33.055,-96.7365
43,Financial Services,3885816115,Robinhood,"Senior Software Engineer, Container Orchestration","['kubernetes', 'kubernetes', 'kubernetes', 'kubernetes', 'kubernetes', 'networking', 'debugging', 'kubernetes', 'kubernetes']",10001.0,NY,40.7484,-73.9967
43,Financial Services,3885805701,Capital One,"Lead Software Engineer, Back End","['programming', 'nosql', 'docker', 'nodejs', 'agile']",10001.0,NY,40.7484,-73.9967
43,Financial Services,3885807499,Capital One,"Senior Software Engineer, Back End (GoLang)","['kafka', 'agile', 'programming', 'nosql', 'docker', 'nodejs', 'agile']",22101.0,VA,38.9326,-77.1706
43,Financial Services,3885806703,Capital One,"Senior Software Engineer Back End (Java, Python, Spring Boot, AWS)","['spring', 'agile', 'programming', 'nosql', 'docker', 'nodejs', 'agile']",22101.0,VA,38.9326,-77.1706
43,Financial Services,3885808494,Capital One,"Lead Software Engineer, Backend (Java, Go)","['programming', 'nosql', 'docker', 'nodejs', 'agile']",60601.0,IL,41.8858,-87.6181
43,Financial Services,3886215674,Capital One,"Senior Software Engineer (Python, AWS)","['agile', 'programming', 'nosql', 'docker', 'nodejs', 'agile']",10001.0,NY,40.7484,-73.9967
43,Financial Services,3887573499,Fidelity Investments,Senior Software Engineer Test,"['automation', 'organization', 'agile', 'programming', 'java', 'automation', 'agile', 'agile', 'automation', 'automation', 'agile', 'automation', 'organization', 'agile', 'go', 'go']",27701.0,NC,35.9967,-78.8966
43,Financial Services,3887571966,Fidelity Investments,Senior Software Engineer Test,"['automation', 'organization', 'agile', 'programming', 'java', 'automation', 'agile', 'agile', 'automation', 'automation', 'agile', 'automation', 'organization', 'agile', 'go', 'go']",76691.0,TX,31.7754,-97.1258
43,Financial Services,3889124865,Affirm,"Software Engineer II, Backend (Disclosures)","['flexibility', 'leadership', 'go', 'kubernetes', 'communication', 'collaboration', 'leadership', 'flexibility', 'initiative']",75201.0,TX,32.7904,-96.8044
43,Financial Services,3887939358,Principal Financial Group,Experienced Software Engineer (Salesforce),['automation'],50307.0,IA,41.6005,-93.6091
43,Financial Services,3889771499,Mindlance,Java Software Engineer,"['java', 'spring']",20190.0,VA,38.9615,-77.3418
43,Financial Services,3886882430,Goldman Lloyds,Trading Software Engineer,['java'],10001.0,NY,40.7484,-73.9967
43,Financial Services,3886894401,"American Farm Bureau Insurance Services, Inc. - AFBIS, Inc.",Senior Software Engineer,"['devops', 'collaboration', 'automation', 'innovation', 'programming', 'problemsolving', 'communication']",58102.0,ND,46.9209,-96.8318
43,Financial Services,3894210130,USAA,Fullstack Software Engineer - Mid Level,"['java', 'planning']",33602.0,FL,27.9614,-82.4597
43,Financial Services,3894210146,USAA,Fullstack Software Engineer - Mid Level,"['java', 'planning']",78201.0,TX,29.4711,-98.5356
43,Financial Services,3894207324,USAA,Fullstack Software Engineer - Mid Level,"['java', 'planning']",75023.0,TX,33.055,-96.7365
43,Financial Services,3894874976,Affirm,"Software Engineer II, Frontend (T&S Experience)","['flexibility', 'planning', 'flexibility', 'initiative']",95101.0,CA,37.3894,-121.8868
43,Financial Services,3894204917,USAA,Java Software Engineer - Mid Level,"['java', 'spring', 'planning']",78201.0,TX,29.4711,-98.5356
43,Financial Services,3891073508,NOVA® Home Loans,Software Engineer III,"['programming', 'leadership', 'debugging', 'programming', 'sql', 'scripting', 'sql', 'agile']",85701.0,AZ,32.2139,-110.9694
43,Financial Services,3894288373,Capital One,"Senior Software Engineer, Back End (GoLang)","['kafka', 'agile', 'programming', 'nosql', 'docker', 'nodejs', 'agile']",23219.0,VA,37.5463,-77.4378
43,Financial Services,3894288365,Capital One,"Lead Software Engineer, Backend (Java, Go)","['programming', 'nosql', 'docker', 'nodejs', 'agile']",22101.0,VA,38.9326,-77.1706
43,Financial Services,3894284844,Capital One,"Senior Software Engineer, Back End (GoLang)","['kafka', 'agile', 'programming', 'nosql', 'docker', 'nodejs', 'agile']",60601.0,IL,41.8858,-87.6181
43,Financial Services,3894290300,Capital One,"Senior Software Engineer, Full Stack (TypeScript, Node, React, AWS)","['agile', 'programming', 'nosql', 'docker', 'typescript', 'agile', 'cybersecurity', 'testing']",10001.0,NY,40.7484,-73.9967
43,Financial Services,3894290293,Capital One,"Senior Software Engineer, Back End","['agile', 'programming', 'nosql', 'docker', 'nodejs', 'agile']",22101.0,VA,38.9326,-77.1706
43,Financial Services,3894289307,Capital One,"Senior Software Engineer, Full Stack (TypeScript, Node, React, AWS)","['agile', 'programming', 'nosql', 'docker', 'typescript', 'agile', 'cybersecurity', 'testing']",22101.0,VA,38.9326,-77.1706
43,Financial Services,3894286619,Capital One,"Senior Software Engineer, Full Stack (TypeScript, Node, React, AWS)","['agile', 'programming', 'nosql', 'docker', 'typescript', 'agile', 'cybersecurity', 'testing']",60601.0,IL,41.8858,-87.6181
43,Financial Services,3894285746,Capital One,"Senior Software Engineer, Back End","['agile', 'programming', 'nosql', 'docker', 'nodejs', 'agile']",75023.0,TX,33.055,-96.7365
43,Financial Services,3894286621,Capital One,"Senior, Software Engineer, Full Stack","['agile', 'programming', 'nosql', 'docker', 'spring', 'agile']",23219.0,VA,37.5463,-77.4378
43,Financial Services,3894290290,Capital One,"Lead Software Engineer, Backend (Java, Go)","['programming', 'nosql', 'docker', 'nodejs', 'agile']",23219.0,VA,37.5463,-77.4378
43,Financial Services,3894290277,Capital One,"Senior, Software Engineer, Full Stack","['agile', 'programming', 'nosql', 'docker', 'spring', 'agile']",22101.0,VA,38.9326,-77.1706
43,Financial Services,3894286624,Capital One,"Lead Software Engineer, Full Stack (Java, Go)","['programming', 'nosql', 'docker', 'go', 'agile']",22101.0,VA,38.9326,-77.1706
43,Financial Services,3895237935,Equifax,Software Engineer,"['microservices', 'agile', 'javascript', 'programming', 'css', 'agile', 'sql']",30004.0,GA,34.1124,-84.302
43,Financial Services,3895240684,Equifax,Senior Software Engineer - MFT,"['microservices', 'microservices', 'jenkins', 'terraform', 'angular', 'agile', 'sql']",30004.0,GA,34.1124,-84.302
43,Financial Services,3894548011,Capital One,"Senior Software Engineer, Back End (Python)","['automation', 'testing', 'testing', 'automation', 'agile', 'programming', 'nosql', 'docker', 'nodejs', 'agile']",60601.0,IL,41.8858,-87.6181
43,Financial Services,3894543933,Capital One,"Senior Software Engineer, Full Stack (Java, AWS)","['agile', 'collaboration', 'microservices', 'java', 'agile', 'programming', 'nosql', 'docker', 'go', 'agile']",30303.0,GA,33.7525,-84.3888
43,Financial Services,3894545524,Capital One,"Senior Software Engineer, Full Stack (Java, AWS)","['agile', 'collaboration', 'microservices', 'java', 'agile', 'programming', 'nosql', 'docker', 'go', 'agile']",75023.0,TX,33.055,-96.7365
43,Financial Services,3894543947,Capital One,"Senior Lead Software Engineer, Full Stack","['microservices', 'agile', 'programming', 'nosql', 'docker', 'go', 'agile']",75023.0,TX,33.055,-96.7365
43,Financial Services,3894544718,Capital One,"Senior Software Engineer, BackEnd","['agile', 'programming', 'nosql', 'docker', 'nodejs', 'agile']",23219.0,VA,37.5463,-77.4378
43,Financial Services,3894544717,Capital One,"Senior Software Engineer, Full Stack (Java, AWS)","['agile', 'collaboration', 'microservices', 'java', 'agile', 'programming', 'nosql', 'docker', 'go', 'agile']",22101.0,VA,38.9326,-77.1706
43,Financial Services,3894543928,Capital One,"Senior Software Engineer, Full Stack (Java, AWS)","['agile', 'collaboration', 'microservices', 'java', 'agile', 'programming', 'nosql', 'docker', 'go', 'agile']",23219.0,VA,37.5463,-77.4378
43,Financial Services,3894541964,Capital One,"Senior Software Engineer, Full Stack (Java, AWS)","['agile', 'collaboration', 'microservices', 'java', 'agile', 'programming', 'nosql', 'docker', 'go', 'agile']",60601.0,IL,41.8858,-87.6181
43,Financial Services,3894546433,Capital One,"Lead, Software Engineer, Full Stack","['programming', 'nosql', 'docker', 'spark', 'go', 'agile']",10001.0,NY,40.7484,-73.9967
43,Financial Services,3894547031,Capital One,"Senior Software Engineer, Back End (Python)","['automation', 'testing', 'testing', 'automation', 'agile', 'programming', 'nosql', 'docker', 'nodejs', 'agile']",75023.0,TX,33.055,-96.7365
43,Financial Services,3894539991,Capital One,"Senior Software Engineer, BackEnd","['agile', 'programming', 'nosql', 'docker', 'nodejs', 'agile']",22101.0,VA,38.9326,-77.1706
43,Financial Services,3894543925,Capital One,"Manager, Software Engineer","['programming', 'nosql', 'docker', 'go', 'agile']",23219.0,VA,37.5463,-77.4378
43,Financial Services,3894541978,Capital One,"Senior Software Engineer, Full Stack (Java, AWS)","['agile', 'collaboration', 'microservices', 'java', 'agile', 'programming', 'nosql', 'docker', 'go', 'agile']",10001.0,NY,40.7484,-73.9967
43,Financial Services,3895546037,Early Warning®,Sr. Software Engineer - Test (SDET) - Paze,"['innovation', 'planning', 'automation', 'automation', 'testing', 'automation', 'programming', 'nodejs', 'java', 'automation', 'automation', 'testing', 'testing', 'networking', 'planning']",10001.0,NY,40.7484,-73.9967
43,Financial Services,3891288752,JPMorgan Chase & Co.,AWS RDS Database Software Engineer II,"['agile', 'algorithms', 'programming', 'agile', 'java', 'spring', 'sql', 'testing', 'automation', 'sql', 'sql', 'sql']",92660.0,CA,33.6295,-117.8684
43,Financial Services,3895801827,Goldman Sachs,"Senior Software Engineer, Corporate Treasury, GS Bank Engineering","['leadership', 'innovation', 'spring', 'kubernetes', 'planning', 'programming', 'problemsolving', 'communication', 'programming', 'python', 'kafka']",10001.0,NY,40.7484,-73.9967
43,Financial Services,3894628592,USAA,Guidewire Software Engineer - Mid Level,['planning'],85003.0,AZ,33.4511,-112.0774
43,Financial Services,3894634095,USAA,Guidewire Software Engineer - Mid Level,['planning'],75023.0,TX,33.055,-96.7365
43,Financial Services,3894631301,USAA,Guidewire Software Engineer Senior,"['algorithms', 'planning']",75023.0,TX,33.055,-96.7365
43,Financial Services,3894629364,USAA,Mid-Level Software Engineer-Guidewire Contact Manager,"['programming', 'planning']",75023.0,TX,33.055,-96.7365
43,Financial Services,3894628578,USAA,Guidewire Software Engineer Senior,"['algorithms', 'planning']",78201.0,TX,29.4711,-98.5356
43,Financial Services,3894628585,USAA,Mid-Level Software Engineer-Guidewire Contact Manager,"['programming', 'planning']",78201.0,TX,29.4711,-98.5356
43,Financial Services,3900078915,Robinhood,Senior Software Engineer - Capacity Engineering and Analysis,['organization'],97042.0,OR,45.213,-122.5351
43,Financial Services,3900079691,Robinhood,Staff Software Engineer - Capacity Engineering and Analysis,['organization'],97042.0,OR,45.213,-122.5351
43,Financial Services,3901673426,Freddie Mac,"Financial Model Software Engineer, Professional (Hybrid - 3 Days in Office)","['collaboration', 'c', 'testing', 'python', 'testing', 'programming', 'c', 'programming']",22101.0,VA,38.9326,-77.1706
43,Financial Services,3901156959,Robinhood,"Staff Software Engineer, DeployX","['microservices', 'communication', 'collaboration']",98004.0,WA,47.6155,-122.2072
43,Financial Services,3902736535,Fidelity Investments,Principal Software Engineer,"['agile', 'angular', 'java', 'spring', 'collaboration', 'leadership', 'collaboration', 'java', 'sql', 'leadership', 'go', 'go']",27701.0,NC,35.9967,-78.8966
43,Financial Services,3904362395,Wells Fargo,.NET Senior Software Engineer - Credit Card Operations,"['agile', 'sql', 'agile', 'java', 'angular']",28202.0,NC,35.229,-80.8419
43,Financial Services,3904361475,Wells Fargo,Lead Software Engineer,"['c', 'python', 'java', 'agile']",28202.0,NC,35.229,-80.8419
43,Financial Services,3900961380,JPMorgan Chase & Co.,Software Engineer III - Java & AWS,"['agile', 'algorithms', 'programming', 'spring', 'automation', 'programming', 'agile', 'programming']",33602.0,FL,27.9614,-82.4597
43,Financial Services,3900962316,JPMorgan Chase & Co.,Software Engineer,"['innovation', 'planning']",33602.0,FL,27.9614,-82.4597
43,Financial Services,3900964071,JPMorgan Chase & Co.,Software Engineer II (Automation),"['agile', 'programming', 'decisionmaking', 'programming', 'agile', 'testing', 'debugging', 'programming']",75023.0,TX,33.055,-96.7365
43,Financial Services,3902756825,Citi,Digital Software Engineer Senior Analyst,"['agile', 'writing', 'microservices', 'spring', 'presentation', 'writing', 'testing']",75038.0,TX,32.8653,-96.9905
43,Financial Services,3904363387,Wells Fargo,.NET Senior Software Engineer - Credit Card Operations,"['agile', 'sql', 'agile', 'java', 'angular']",50265.0,IA,41.5805,-93.7447
43,Financial Services,3900967065,JPMorgan Chase & Co.,Python Software Engineer,"['algorithms', 'programming', 'agile', 'spark', 'java']",75023.0,TX,33.055,-96.7365
43,Financial Services,3904365938,Fifth Third Bank,Senior Software Engineer,"['agile', 'agile', 'agile', 'agile', 'sql', 'spring', 'networking', 'problemsolving']",60601.0,IL,41.8858,-87.6181
43,Financial Services,3904386398,Block,"Senior Software Engineer, Cash Commerce","['collaboration', 'initiative', 'initiative', 'problemsolving', 'communication', 'blockchain', 'go']",98101.0,WA,47.6114,-122.3305
43,Financial Services,3904387380,Block,"Senior Software Engineer, Cash Commerce","['collaboration', 'initiative', 'initiative', 'problemsolving', 'communication', 'blockchain', 'go']",10001.0,NY,40.7484,-73.9967
43,Financial Services,3900957993,JPMorgan Chase & Co.,Software Engineer III (Full Stack with React),"['agile', 'algorithms', 'programming', 'agile']",30303.0,GA,33.7525,-84.3888
43,Financial Services,3904367010,Wells Fargo,Senior Software Engineer (Ref #001135),"['automation', 'automation', 'devops', 'spring']",28202.0,NC,35.229,-80.8419
43,Financial Services,3902786197,Capital One,Senior Software Engineer- Backend,"['programming', 'spark', 'nosql', 'docker', 'nodejs', 'agile']",23219.0,VA,37.5463,-77.4378
43,Financial Services,3904361478,Wells Fargo,Lead Software Engineer,"['c', 'python', 'java', 'agile']",75038.0,TX,32.8653,-96.9905
43,Financial Services,3902783521,Capital One,"Senior Software Engineer, Full Stack (Node)","['agile', 'programming', 'nosql', 'docker', 'go', 'agile']",22101.0,VA,38.9326,-77.1706
43,Financial Services,3902781834,Capital One,Senior Software Engineer (Backend),"['agile', 'programming', 'nosql', 'docker', 'nodejs', 'agile']",60601.0,IL,41.8858,-87.6181
43,Financial Services,3902785266,Capital One,Senior Software Engineer,"['agile', 'programming', 'nosql', 'docker', 'go', 'agile']",23219.0,VA,37.5463,-77.4378
43,Financial Services,3904419488,Equifax,Senior Software Engineer,"['communication', 'leadership', 'microservices', 'jenkins', 'terraform', 'communication', 'presentation', 'leadership', 'go', 'microservices', 'agile', 'go']",30004.0,GA,34.1124,-84.302
43,Financial Services,3904423079,Equifax,Senior Software Engineer,"['communication', 'leadership', 'css', 'microservices', 'jenkins', 'terraform', 'communication', 'presentation', 'leadership', 'angular', 'microservices', 'agile', 'sql']",30303.0,GA,33.7525,-84.3888
43,Financial Services,3902784441,Capital One,"Senior Software Engineer, Back End","['agile', 'programming', 'nosql', 'docker', 'nodejs', 'agile']",75023.0,TX,33.055,-96.7365
43,Financial Services,3904390593,Berkley Environmental (a Berkley Company),Sr. Software Engineer,"['sql', 'testing', 'sql', 'agile', 'sql', 'devops', 'python']",30303.0,GA,33.7525,-84.3888
43,Financial Services,3902784442,Capital One,Senior Software Engineer,"['agile', 'programming', 'nosql', 'docker', 'go', 'agile']",22101.0,VA,38.9326,-77.1706
43,Financial Services,3902781841,Capital One,"Senior Software Engineer, Full Stack (Java)","['agile', 'programming', 'nosql', 'docker', 'go', 'agile']",60601.0,IL,41.8858,-87.6181
43,Financial Services,3902740019,Fidelity Investments,Principal Software Engineer,"['agile', 'angular', 'java', 'spring', 'collaboration', 'leadership', 'collaboration', 'java', 'sql', 'leadership', 'go', 'go']",76691.0,TX,31.7754,-97.1258
43,Financial Services,3902782732,Capital One,Senior Software Engineer (Backend),"['agile', 'programming', 'nosql', 'docker', 'nodejs', 'agile']",23219.0,VA,37.5463,-77.4378
43,Financial Services,3902781838,Capital One,Senior Software Engineer- Backend,"['programming', 'spark', 'nosql', 'docker', 'nodejs', 'agile']",22101.0,VA,38.9326,-77.1706
43,Financial Services,3900959938,Venmo,Senior Staff Software Engineer - Python,"['communication', 'organization', 'leadership', 'python', 'programming', 'nosql', 'terraform']",78701.0,TX,30.2713,-97.7426
43,Financial Services,3901343672,Curinos,Senior Software Engineer - Data Platforms,"['writing', 'agile', 'sql', 'communication', 'networking', 'go']",10001.0,NY,40.7484,-73.9967
43,Financial Services,3904941046,Selby Jennings,Multi-Strat Hedge Fund | Senior Software Engineer,"['python', 'programming']",10001.0,NY,40.7484,-73.9967
43,Financial Services,3904937335,Selby Jennings,High Frequency Trading | Senior Software Engineer,"['programming', 'c', 'problemsolving']",78701.0,TX,30.2713,-97.7426
43,Financial Services,3903460158,Ria Money Transfer,Senior Software Engineer,"['angular', 'c', 'angular', 'c', 'programming', 'angular', 'c', 'angular', 'c', 'bootstrap', 'agile', 'problemsolving', 'communication', 'collaboration']",90620.0,CA,33.8439,-118.008
43,Financial Services,3904992811,M&T Bank,Software Engineer - ServiceNow,"['leadership', 'organization', 'hardware', 'problemsolving', 'communication']",14201.0,NY,42.8967,-78.8846
43,Financial Services,3903456365,BAI,DevOps Software Engineer,"['devops', 'devops', 'testing', 'programming', 'sql', 'programming', 'c', 'javascript', 'scripting', 'devops', 'teamwork']",60601.0,IL,41.8858,-87.6181
43,Financial Services,3904948737,ICE,"Senior Software Engineer, Machine Learning","['python', 'programming', 'programming', 'spark', 'programming', 'nosql', 'communication', 'flexibility']",30303.0,GA,33.7525,-84.3888
43,Financial Services,3903474903,EarnIn,Staff Software Engineer,"['flexibility', 'leadership', 'communication']",94301.0,CA,37.4443,-122.1497
43,Financial Services,3901369968,JPMorgan Chase & Co.,Software Engineer,"['innovation', 'planning', 'spring']",75023.0,TX,33.055,-96.7365
43,Financial Services,3904965626,Curinos,Senior Software Engineer - Data Platforms (US),"['writing', 'agile', 'sql', 'communication', 'networking', 'go']",10001.0,NY,40.7484,-73.9967
43,Financial Services,3903459292,Ria Money Transfer,Senior Software Engineer,"['angular', 'c', 'angular', 'c', 'programming', 'angular', 'c', 'angular', 'c', 'bootstrap', 'agile', 'problemsolving', 'communication', 'collaboration']",75201.0,TX,32.7904,-96.8044
43,Financial Services,3903800869,Capital One,"Lead Software Engineer, Android","['agile', 'agile', 'kotlin', 'leadership', 'kotlin', 'kotlin', 'agile']",23219.0,VA,37.5463,-77.4378
43,Financial Services,3903804374,Capital One,"Lead Software Engineer, Android","['agile', 'agile', 'kotlin', 'leadership', 'kotlin', 'kotlin', 'agile']",10001.0,NY,40.7484,-73.9967
43,Financial Services,3903803466,Capital One,"Software Engineer, Full Stack","['agile', 'programming', 'nosql', 'docker', 'go', 'agile', 'cybersecurity', 'testing']",75023.0,TX,33.055,-96.7365
43,Financial Services,3903800876,Capital One,"Senior Software Engineer, iOS","['agile', 'agile', 'swift', 'leadership', 'swift', 'swift', 'agile']",60601.0,IL,41.8858,-87.6181
43,Financial Services,3903807163,Capital One,"Senior Software Engineer, Front End","['microservices', 'programming', 'javascript', 'typescript', 'java', 'agile']",75023.0,TX,33.055,-96.7365
43,Financial Services,3903800866,Capital One,"Software Engineer, Full Stack","['agile', 'programming', 'nosql', 'docker', 'go', 'agile', 'cybersecurity', 'testing']",10001.0,NY,40.7484,-73.9967
43,Financial Services,3903805306,Capital One,"Senior Software Engineer, Full Stack (Java, React, AWS)","['agile', 'programming', 'nosql', 'docker', 'sql', 'agile']",23219.0,VA,37.5463,-77.4378
43,Financial Services,3903802645,Capital One,"Senior Software Engineer, Back End (Python, Kubernetes, AWS)","['agile', 'programming', 'nosql', 'docker', 'nodejs', 'kubernetes', 'docker', 'agile']",60601.0,IL,41.8858,-87.6181
43,Financial Services,3903800875,Capital One,"Senior Lead Software Engineer, Front End","['microservices', 'microservices', 'programming', 'javascript', 'typescript', 'java', 'agile']",22101.0,VA,38.9326,-77.1706
43,Financial Services,3903805310,Capital One,"Senior Software Engineer, Back End (Python, Kubernetes, AWS)","['agile', 'programming', 'nosql', 'docker', 'nodejs', 'kubernetes', 'docker', 'agile']",22101.0,VA,38.9326,-77.1706
43,Financial Services,3905289078,TDA,Java Software Engineer,"['java', 'java', 'testing', 'collaboration', 'java', 'programming', 'communication']",75201.0,TX,32.7904,-96.8044
43,Financial Services,3903823788,Fidelity Investments,Senior Software Engineer-(Mainframe/ SQL/ ETL),"['organization', 'debugging', 'testing', 'agile', 'communication', 'go', 'go']",27701.0,NC,35.9967,-78.8966
43,Financial Services,3905301624,Wells Fargo,Lead Specialty Software Engineer,"['terraform', 'interpersonal', 'communication']",10001.0,NY,40.7484,-73.9967
43,Financial Services,3905302538,Wells Fargo,Lead Automation Software Engineer,"['innovation', 'automation', 'scripting', 'automation', 'scripting', 'java', 'devops']",76691.0,TX,31.7754,-97.1258
43,Financial Services,3905300940,Wells Fargo,Lead Software Engineer (001651),"['testing', 'docker']",28202.0,NC,35.229,-80.8419
43,Financial Services,3905300938,Wells Fargo,Lead Software Engineer,"['kubernetes', 'kubernetes', 'automation']",75038.0,TX,32.8653,-96.9905
43,Financial Services,3905306186,Wells Fargo,Lead Automation Software Engineer,"['innovation', 'automation', 'scripting', 'automation', 'scripting', 'java', 'devops']",28202.0,NC,35.229,-80.8419
43,Financial Services,3903843077,Blackhawk Network,Software Engineer (Hybrid),"['java', 'javascript', 'programming', 'java', 'java', 'debugging', 'testing', 'jenkins']",75019.0,TX,32.9673,-96.9805
43,Financial Services,3903844060,Blackhawk Network,Software Engineer II (Hybrid),"['java', 'javascript', 'programming', 'java', 'java', 'spring', 'debugging', 'testing', 'jenkins', 'problemsolving', 'communication']",75019.0,TX,32.9673,-96.9805
43,Financial Services,3903844065,Blackhawk Network,Software Engineer (Hybrid),"['java', 'javascript', 'programming', 'java', 'java', 'debugging', 'testing', 'jenkins']",75019.0,TX,32.9673,-96.9805
43,Financial Services,3905337487,Radley James,Senior Software Engineer,"['python', 'problemsolving']",10001.0,NY,40.7484,-73.9967
43,Financial Services,3903879663,Fidelity Investments,Python- Data Analytics -Senior Software Engineer,"['organization', 'python', 'programming', 'testing', 'devops', 'automation', 'jenkins', 'writing', 'problemsolving', 'collaboration', 'go', 'go']",76691.0,TX,31.7754,-97.1258
43,Financial Services,3905370998,Wells Fargo,Lead Software Engineer - Java / Microservices / Cloud,"['java', 'interpersonal', 'communication', 'spring', 'spring', 'microservices', 'agile', 'javascript', 'angular', 'containerization', 'kubernetes']",50265.0,IA,41.5805,-93.7447
43,Financial Services,3905372691,Wells Fargo,Lead Software Engineer - Java / Microservices / Cloud,"['java', 'interpersonal', 'communication', 'spring', 'spring', 'microservices', 'agile', 'javascript', 'angular', 'containerization', 'kubernetes']",85224.0,AZ,33.3301,-111.8632
43,Financial Services,3905375260,Wells Fargo,Senior Software Engineer (Ref #001260),"['agile', 'c', 'java', 'agile']",28202.0,NC,35.229,-80.8419
43,Financial Services,3901994718,JPMorgan Chase & Co.,Software Engineer,['automation'],43085.0,OH,40.0999,-83.0157
43,Financial Services,3901993768,JPMorgan Chase & Co.,Software Engineer II (Automation),"['agile', 'programming', 'decisionmaking', 'programming', 'agile', 'testing', 'debugging', 'programming']",75023.0,TX,33.055,-96.7365
43,Financial Services,3903878661,Fidelity Investments,Python- Data Analytics -Senior Software Engineer,"['organization', 'python', 'programming', 'testing', 'devops', 'automation', 'jenkins', 'writing', 'problemsolving', 'collaboration', 'go', 'go']",27701.0,NC,35.9967,-78.8966
43,Financial Services,3904052742,Capital One,"Senior, Software Engineer, Full Stack","['agile', 'programming', 'nosql', 'docker', 'spring', 'agile']",23219.0,VA,37.5463,-77.4378
43,Financial Services,3904049999,Capital One,"Lead Software Engineer, Full Stack (Java, Go)","['programming', 'nosql', 'docker', 'go', 'agile']",22101.0,VA,38.9326,-77.1706
43,Financial Services,3904056039,Capital One,"Senior Software Engineer, Back End","['agile', 'programming', 'nosql', 'docker', 'nodejs', 'agile']",75023.0,TX,33.055,-96.7365
43,Financial Services,3904052740,Capital One,"Senior Software Engineer, Back End","['agile', 'programming', 'nosql', 'docker', 'nodejs', 'agile']",22101.0,VA,38.9326,-77.1706
43,Financial Services,3904051777,Capital One,"Senior, Software Engineer, Full Stack","['agile', 'programming', 'nosql', 'docker', 'spring', 'agile']",22101.0,VA,38.9326,-77.1706
43,Financial Services,3904054115,Capital One,"Lead Software Engineer, Full Stack (Java, Go)","['programming', 'nosql', 'docker', 'go', 'agile']",23219.0,VA,37.5463,-77.4378
43,Financial Services,3905669668,Adyen,Senior Software Engineer - Data Connect,"['python', 'sql']",60601.0,IL,41.8858,-87.6181
43,Financial Services,3904093317,maven,Python/C++ Software Engineer,"['programming', 'go']",10001.0,NY,40.7484,-73.9967
43,Financial Services,3905854340,Bloomberg,Senior Software Engineer - Artificial Intelligence Group,"['pytorch', 'machinelearning', 'leadership', 'programming', 'algorithms']",10001.0,NY,40.7484,-73.9967
43,Financial Services,3905866779,NJF Global Holdings Ltd,C++ Software Engineer (Quant Trading),"['c', 'c']",60601.0,IL,41.8858,-87.6181
43,Financial Services,3905883371,Selby Jennings,High Frequency Trading | Senior Software Engineer,"['programming', 'c', 'problemsolving']",78701.0,TX,30.2713,-97.7426
43,Financial Services,3905892009,Selby Jennings,Elite Hedge Fund | Software Engineer,"['programming', 'motivation']",10001.0,NY,40.7484,-73.9967
43,Financial Services,3904575798,Capital One,"Lead Software Engineer, Front End","['microservices', 'programming', 'javascript', 'typescript', 'typescript', 'agile']",10001.0,NY,40.7484,-73.9967
43,Financial Services,3904580468,Capital One,Senior Lead Software Engineer - Full Stack,"['programming', 'nosql', 'docker', 'go', 'agile']",10001.0,NY,40.7484,-73.9967
43,Financial Services,3904575802,Capital One,"Senior Software Engineer, Full Stack (Spring Boot, JavaScript, AWS)","['agile', 'programming', 'nosql', 'docker', 'java', 'javascript', 'agile']",19102.0,PA,39.9489,-75.1661
43,Financial Services,3904576727,Capital One,"Senior Software Engineer, Full Stack (Spring Boot, JavaScript, AWS)","['agile', 'programming', 'nosql', 'docker', 'java', 'javascript', 'agile']",19801.0,DE,39.7378,-75.5497
43,Financial Services,3904576762,Capital One,"Lead Software Engineer, Front End","['microservices', 'programming', 'javascript', 'typescript', 'typescript', 'agile']",22101.0,VA,38.9326,-77.1706
43,Financial Services,3904577555,Capital One,Senior Lead Software Engineer - Full Stack,"['programming', 'nosql', 'docker', 'go', 'agile']",23219.0,VA,37.5463,-77.4378
43,Financial Services,3906224794,Wells Fargo,Senior Software Engineer (#001483),"['testing', 'programming']",85224.0,AZ,33.3301,-111.8632
43,Financial Services,3906228424,Wells Fargo,Credit Bureau Management Technology Lead Software Engineer,"['organization', 'encryption', 'kafka', 'java', 'sql']",50265.0,IA,41.5805,-93.7447
43,Financial Services,3906224790,Wells Fargo,Credit Bureau Management Technology Lead Software Engineer,"['organization', 'encryption', 'kafka', 'java', 'sql']",28202.0,NC,35.229,-80.8419
43,Financial Services,3906236020,UBS,"Software Engineer - DevOps, Global Banking","['devops', 'interpersonal', 'communication', 'agile']",10001.0,NY,40.7484,-73.9967
43,Financial Services,3902866080,FIS,Software Engineer Senior,"['communication', 'collaboration', 'python', 'kubernetes']",98101.0,WA,47.6114,-122.3305
43,Financial Services,3906232438,Fifth Third Bank,Float Personal Banker 1 - Toledo SE Region,['leadership'],43551.0,OH,41.5429,-83.5927
43,Financial Services,3902867546,OSI Engineering,"Staff Software Engineer for a well-known personal finance management company in Menlo Park, CA","['java', 'testing', 'spring', 'programming', 'collaboration']",94025.0,CA,37.4396,-122.1864
43,Financial Services,3902869157,Venmo,Staff Software Engineer - Python,"['communication', 'organization', 'leadership', 'python', 'programming', 'nosql', 'terraform']",60601.0,IL,41.8858,-87.6181
43,Financial Services,3904722620,MUFG,Software Engineer Lead,"['python', 'python', 'agile', 'python', 'programming', 'communication', 'python', 'python', 'agile']",33602.0,FL,27.9614,-82.4597
43,Financial Services,3904728440,Vive Financial,Software Engineer,"['devops', 'sql', 'communication', 'devops', 'sql', 'devops', 'problemsolving']",72701.0,AR,36.052,-94.1534
84,Information Services,3885859909,Google,"Senior Software Engineer, Project Starline","['programming', 'leadership', 'networking', 'leadership', 'hardware']",98101.0,WA,47.6114,-122.3305
84,Information Services,3885853938,Google,"Staff Software Engineer, Google Cloud Platforms","['leadership', 'organization', 'networking', 'leadership', 'leadership']",98033.0,WA,47.6786,-122.1894
84,Information Services,3885855602,Google,"Staff Software Engineer, Infrastructure, Search","['hardware', 'leadership', 'organization', 'networking', 'leadership', 'leadership']",90001.0,CA,33.9731,-118.2479
84,Information Services,3898161254,"Yoh, A Day & Zimmermann Company",.NET Software Engineer in Test (SDET),"['c', 'automation', 'collaboration', 'testing', 'c', 'automation', 'testing', 'automation', 'automation', 'agile', 'communication', 'programming', 'c', 'automation', 'sql', 'testing']",75038.0,TX,32.8653,-96.9905
84,Information Services,3904362618,Clarivate,Lead Software Engineer (.NET),"['sql', 'testing', 'testing']",48103.0,MI,42.2794,-83.784
84,Information Services,3902752765,Google,"Staff Software Engineer, Borglet","['hardware', 'networking', 'networking', 'leadership', 'organization', 'planning']",94085.0,CA,37.3886,-122.0177
84,Information Services,3902751770,Google,"Staff Software Engineer, Pixel GPU System Software","['leadership', 'organization', 'networking', 'leadership', 'hardware', 'leadership', 'leadership']",94040.0,CA,37.3855,-122.088
84,Information Services,3900956151,Brooksource,Senior Software Engineer,"['testing', 'cybersecurity', 'hardware', 'bash', 'networking', 'cybersecurity', 'leadership']",48310.0,MI,42.5648,-83.0701
84,Information Services,3902756202,Google,"Software Engineer III, Hardware/Software Co-Design","['hardware', 'python', 'programming', 'networking', 'leadership', 'hardware', 'networking']",27701.0,NC,35.9967,-78.8966
84,Information Services,3904385782,"Softworld, a Kelly Company",Software Engineer II,"['agile', 'c', 'c', 'c', 'debugging']",21031.0,MD,39.4805,-76.6553
84,Information Services,3903434350,"VMC Soft Technologies, Inc",Software Engineer in Test,"['automation', 'testing', 'programming', 'python', 'sql', 'agile', 'sql', 'python', 'python', 'sql', 'testing', 'python', 'programming', 'testing', 'javascript', 'python', 'automation', 'automation', 'python', 'sql', 'agile', 'automation', 'testing', 'automation', 'java', 'javascript', 'jenkins', 'automation', 'automation', 'agile', 'automation', 'testing', 'testing', 'sql', 'automation', 'communication', 'java', 'programming', 'testing', 'sql', 'automation', 'automation']",27701.0,NC,35.9967,-78.8966
84,Information Services,3904954163,Talent Groups,Java Software Engineer,"['java', 'java', 'automation', 'programming', 'jenkins', 'automation']",78701.0,TX,30.2713,-97.7426
84,Information Services,3903469622,Google,"Senior Staff Software Engineer, Google Cloud, Looker","['java', 'leadership', 'organization', 'sql', 'leadership', 'networking', 'leadership', 'leadership']",98033.0,WA,47.6786,-122.1894
84,Information Services,3905285559,ZoomInfo,Principal Software Engineer - Provisioning & Authorization,"['java', 'nodejs', 'sql', 'microservices', 'interpersonal']",20814.0,MD,39.0003,-77.1022
84,Information Services,3902350437,Ascendum Solutions,Software Engineer,"['debugging', 'scripting', 'sql', 'programming', 'writing']",45011.0,OH,39.4059,-84.5221
84,Information Services,3904098537,Veracity Software Inc,"Lead / Sr. Software Engineer, React + Front End","['react', 'javascript', 'javascript', 'ruby', 'javascript', 'react', 'react', 'javascript', 'communication', 'debugging', 'testing', 'programming', 'testing', 'communication', 'collaboration', 'ruby']",78701.0,TX,30.2713,-97.7426
84,Information Services,3905854340,Bloomberg,Senior Software Engineer - Artificial Intelligence Group,"['pytorch', 'machinelearning', 'leadership', 'programming', 'algorithms']",10001.0,NY,40.7484,-73.9967
84,Information Services,3905888091,Oracle,Senior Software Engineer,"['debugging', 'programming', 'problemsolving', 'communication']",80202.0,CO,39.7491,-104.9946
84,Information Services,3906252459,Compunnel Inc.,Sr Software Engineer,"['sql', 'networking', 'automation', 'automation', 'devops', 'c', 'python', 'angular', 'angular', 'angular', 'c', 'python', 'docker']",97123.0,OR,45.4984,-122.957
84,Information Services,3904721815,Google,"Senior Software Engineer, Google Ads","['programming', 'leadership', 'networking', 'leadership']",10001.0,NY,40.7484,-73.9967
84,Information Services,3904719876,Google,"Senior Software Engineer, Embedded Systems/Firmware, Pixel","['programming', 'leadership', 'networking', 'leadership', 'hardware']",94040.0,CA,37.3855,-122.088
84,Information Services,3904720957,Google,"Software Engineer III, Infrastructure, Google Cloud Platforms","['programming', 'algorithms', 'hardware', 'networking', 'leadership']",98101.0,WA,47.6114,-122.3305
84,Information Services,3904720899,Google,"Senior Software Engineer, Infrastructure, Google Cloud Data Management","['programming', 'hardware', 'leadership', 'networking', 'leadership']",98033.0,WA,47.6786,-122.1894
84,Information Services,3904724182,Google,"Senior Staff Software Engineer, Workload Identity Management","['leadership', 'organization', 'networking', 'leadership', 'organization', 'leadership']",94085.0,CA,37.3886,-122.0177
84,Information Services,3904718994,Google,"Software Engineer III, Platforms Infrastructure Engineering","['programming', 'algorithms', 'networking', 'leadership']",94085.0,CA,37.3886,-122.0177
84,Information Services,3906258197,Wolters Kluwer,Senior Product Software Engineer | C# | Azure,"['agile', 'agile', 'flexibility', 'automation', 'programming', 'c', 'sql', 'agile', 'agile']",75019.0,TX,32.9673,-96.9805
96,IT Services and IT Consulting,3827945924,TRG,Software Engineer,"['communication', 'sql', 'initiative', 'c']",44145.0,OH,41.4535,-81.9218
96,IT Services and IT Consulting,3884430666,Ask IT Consulting Inc.,Software Engineer with Vue JS.,"['c', 'vue']",30096.0,GA,33.9845,-84.1529
96,IT Services and IT Consulting,3887871221,HTC Global Services,Software Engineer - Senior,"['agile', 'leadership', 'communication', 'programming', 'agile', 'agile', 'java', 'spring', 'programming', 'testing']",48120.0,MI,42.3223,-83.1763
96,IT Services and IT Consulting,3885833582,ServiceNow,"Senior Full-Stack Software Engineer, UX Platform","['innovation', 'automation', 'java', 'javascript', 'react', 'organization', 'agile', 'flexibility']",95050.0,CA,37.3492,-121.953
96,IT Services and IT Consulting,3885825905,TEKsystems,Senior Software Engineer,"['debugging', 'testing', 'hardware', 'testing', 'agile', 'agile', 'agile', 'agile', 'python', 'agile', 'interpersonal', 'presentation', 'communication']",39556.0,MS,30.4875,-89.4187
96,IT Services and IT Consulting,3885832533,ServiceNow,Staff Software Engineer - Big Data Federal,"['algorithms', 'spark', 'spark', 'kafka', 'sql', 'writing', 'problemsolving', 'communication', 'flexibility']",92101.0,CA,32.7185,-117.1593
96,IT Services and IT Consulting,3885828920,ServiceNow,Staff Software Engineer - Big Data,"['java', 'spark', 'spark', 'kafka', 'problemsolving', 'communication', 'kubernetes', 'testing', 'flexibility']",92101.0,CA,32.7185,-117.1593
96,IT Services and IT Consulting,3884989898,Amazon Web Services (AWS),"Senior Software Engineer, AWS Kumo","['innovation', 'creativity', 'innovation', 'collaboration', 'collaboration', 'programming', 'programming']",98004.0,WA,47.6155,-122.2072
96,IT Services and IT Consulting,3885847461,HIRECLOUT,Senior Back-end Software Engineer (Contract) (Hybrid) – 4314,"['agile', 'python', 'agile', 'sql', 'microservices', 'writing', 'testing', 'problemsolving', 'communication', 'planning', 'writing', 'interpersonal', 'docker', 'nosql']",92602.0,CA,33.7419,-117.7467
